[
  {
    "id": "goodsprings_saloon_fnv",
    "name": "Goodsprings Saloon",
    "lat": 35.8324,
    "lng": -115.4320,
    "lvl": 1,
    "rarity": "common",
    "game": "fnv",
    "region": "mojave",
    "source": "fallout_canon"
  },
  {
    "id": "primm_rollercoaster_fnv",
    "name": "Primm Rollercoaster",
    "lat": 35.6145,
    "lng": -115.3845,
    "lvl": 2,
    "rarity": "common",
    "game": "fnv",
    "region": "mojave",
    "source": "fallout_canon"
  },
  {
    "id": "novac_motel_fnv",
    "name": "Novac Motel",
    "lat": 35.0525,
    "lng": -114.8247,
    "lvl": 5,
    "rarity": "rare",
    "game": "fnv",
    "region": "mojave",
    "source": "fallout_canon"
  },
  {
    "id": "hoover_dam_fnv",
    "name": "Hoover Dam",
    "lat": 36.016,
    "lng": -114.738,
    "lvl": 12,
    "rarity": "epic",
    "game": "fnv",
    "region": "mojave",
    "source": "fallout_canon"
  },
  {
    "id": "new_vegas_strip_gate_fnv",
    "name": "The Strip Gate",
    "lat": 36.1147,
    "lng": -115.1728,
    "lvl": 15,
    "rarity": "epic",
    "game": "fnv",
    "region": "mojave",
    "source": "fallout_canon"
  },
  {
    "id": "lucky_38_fnv",
    "name": "Lucky 38",
    "lat": 36.147,
    "lng": -115.156,
    "lvl": 18,
    "rarity": "epic",
    "game": "fnv",
    "region": "mojave",
    "source": "fallout_canon"
  },
  {
    "id": "black_mountain_fnv",
    "name": "Black Mountain",
    "lat": 35.9310,
    "lng": -115.0440,
    "lvl": 20,
    "rarity": "epic",
    "game": "fnv",
    "region": "mojave",
    "source": "fallout_canon"
  },
  {
    "id": "area_51_gate_fnv",
    "name": "Area 51 Gate",
    "lat": 37.2431,
    "lng": -115.7930,
    "lvl": 45,
    "rarity": "legendary",
    "game": "fnv",
    "region": "mojave",
    "source": "fallout_canon"
  },
  {
    "id": "vault_77_secret_fnv",
    "name": "Vault 77 (Secret)",
    "lat": 36.170,
    "lng": -115.140,
    "lvl": 77,
    "rarity": "legendary",
    "game": "fnv",
    "region": "mojave",
    "source": "fallout_canon"
  },
  {
    "id": "vault_34_fnv",
    "name": "Vault 34",
    "lat": 36.1750,
    "lng": -114.7500,
    "lvl": 20,
    "rarity": "epic",
    "rads": 200,
    "game": "fnv",
    "region": "mojave",
    "source": "fallout_canon"
  },
  {
    "id": "jacobstown_fnv",
    "name": "Jacobstown",
    "lat": 36.3000,
    "lng": -115.6500,
    "lvl": 22,
    "rarity": "rare",
    "game": "fnv",
    "region": "mojave",
    "source": "fallout_canon"
  },
  {
    "id": "searchlight_church_fnv",
    "name": "Searchlight Church",
    "lat": 35.46434,
    "lng": -114.91844,
    "lvl": 10,
    "rarity": "rare",
    "game": "fnv",
    "region": "mojave",
    "source": "fallout_canon"
  },
  {
    "id": "camp_searchlight_fnv",
    "name": "Camp Searchlight",
    "lat": 35.4600,
    "lng": -114.9200,
    "lvl": 11,
    "rarity": "rare",
    "rads": 130,
    "game": "fnv",
    "region": "mojave",
    "source": "fallout_canon"
  },
  {
    "id": "cottonwood_cove_fnv",
    "name": "Cottonwood Cove",
    "lat": 35.9990,
    "lng": -114.5000,
    "lvl": 14,
    "rarity": "rare",
    "game": "fnv",
    "region": "mojave",
    "source": "fallout_canon"
  },
  {
    "id": "nipton_trading_post_fnv",
    "name": "Nipton Trading Post",
    "lat": 35.46667,
    "lng": -115.27222,
    "lvl": 4,
    "rarity": "common",
    "game": "fnv",
    "region": "mojave",
    "source": "fallout_canon"
  },
  {
    "id": "nipton_hall_fnv",
    "name": "Nipton Hall",
    "lat": 35.4667,
    "lng": -115.2722,
    "lvl": 5,
    "rads": 50,
    "rarity": "common",
    "game": "fnv",
    "region": "mojave",
    "source": "fallout_canon"
  },
  {
    "id": "boulder_city_hotel_fnv",
    "name": "Boulder City Hotel",
    "lat": 35.97750,
    "lng": -114.83639,
    "lvl": 6,
    "rarity": "rare",
    "game": "fnv",
    "region": "mojave",
    "source": "fallout_canon"
  },
  {
    "id": "boulder_city_ruins_fnv",
    "name": "Boulder City Ruins",
    "lat": 35.9775,
    "lng": -114.8364,
    "lvl": 7,
    "rarity": "rare",
    "rads": 20,
    "game": "fnv",
    "region": "mojave",
    "source": "fallout_canon"
  },
  {
    "id": "new_vegas_strip_fnv",
    "name": "New Vegas Strip",
    "lat": 36.112740,
    "lng": -115.174301,
    "lvl": 10,
    "rarity": "epic",
    "game": "fnv",
    "region": "mojave",
    "source": "fallout_canon"
  },
  {
    "id": "freeside_market_fnv",
    "name": "Freeside Market",
    "lat": 36.170719,
    "lng": -115.143929,
    "lvl": 5,
    "rarity": "common",
    "game": "fnv",
    "region": "mojave",
    "source": "fallout_canon"
  },
  {
    "id": "red_rock_canyon_fnv",
    "name": "Red Rock Canyon",
    "lat": 36.13514,
    "lng": -115.4283,
    "lvl": 8,
    "rarity": "rare",
    "game": "fnv",
    "region": "mojave",
    "source": "fallout_canon"
  },
  {
    "id": "nellis_afb_fnv",
    "name": "Nellis Air Force Base",
    "lat": 36.2361,
    "lng": -115.0342,
    "lvl": 25,
    "rarity": "epic",
    "game": "fnv",
    "region": "mojave",
    "source": "fallout_canon"
  },
  {
    "id": "helios_one_fnv",
    "name": "HELIOS One",
    "lat": 35.7580,
    "lng": -114.9530,
    "lvl": 13,
    "rarity": "epic",
    "game": "fnv",
    "region": "mojave",
    "source": "fallout_canon"
  },
  {
    "id": "helios_one_entrance_fnv",
    "name": "HELIOS One Entrance",
    "lat": 35.7600,
    "lng": -114.9500,
    "lvl": 13,
    "rads": 90,
    "rarity": "epic",
    "game": "fnv",
    "region": "mojave",
    "source": "fallout_canon"
  },
  {
    "id": "repconn_test_site_fnv",
    "name": "REPCONN Test Site",
    "lat": 36.0360,
    "lng": -115.0880,
    "lvl": 12,
    "rarity": "rare",
    "game": "fnv",
    "region": "mojave",
    "source": "fallout_canon"
  },
  {
    "id": "repconn_headquarters_fnv",
    "name": "REPCONN Headquarters",
    "lat": 36.0500,
    "lng": -115.1000,
    "lvl": 13,
    "rads": 95,
    "rarity": "epic",
    "game": "fnv",
    "region": "mojave",
    "source": "fallout_canon"
  },
  {
    "id": "dead_wind_cavern_fnv",
    "name": "Dead Wind Cavern",
    "lat": 35.8000,
    "lng": -115.4000,
    "lvl": 40,
    "rarity": "legendary",
    "rads": 180,
    "game": "fnv",
    "region": "mojave",
    "source": "fallout_canon"
  },
  {
    "id": "deathclaw_promontory_fnv",
    "name": "Deathclaw Promontory",
    "lat": 36.1000,
    "lng": -114.9000,
    "lvl": 45,
    "rarity": "legendary",
    "rads": 180,
    "game": "fnv",
    "region": "mojave",
    "source": "fallout_canon"
  },
  {
    "id": "quarry_junction_fnv",
    "name": "Quarry Junction",
    "lat": 35.9200,
    "lng": -115.1800,
    "lvl": 20,
    "rarity": "epic",
    "rads": 70,
    "game": "fnv",
    "region": "mojave",
    "source": "fallout_canon"
  },
  {
    "id": "bonnie_springs_ranch_fnv",
    "name": "Bonnie Springs Ranch",
    "lat": 36.06007,
    "lng": -115.45027,
    "lvl": 7,
    "rarity": "common",
    "game": "fnv",
    "region": "mojave",
    "source": "fallout_canon"
  },
  {
    "id": "callville_bay_marina_fnv",
    "name": "Callville Bay Marina",
    "lat": 36.14400,
    "lng": -114.72200,
    "lvl": 9,
    "rarity": "common",
    "game": "fnv",
    "region": "mojave",
    "source": "fallout_canon"
  },
  {
    "id": "sloan_station_fnv",
    "name": "Sloan Station",
    "lat": 35.94361,
    "lng": -115.21722,
    "lvl": 5,
    "rarity": "common",
    "game": "fnv",
    "region": "mojave",
    "source": "fallout_canon"
  },
  {
    "id": "jean_airport_fnv",
    "name": "Jean Airport",
    "lat": 35.7677,
    "lng": -115.3245,
    "lvl": 6,
    "rarity": "common",
    "game": "fnv",
    "region": "mojave",
    "source": "fallout_canon"
  },
  {
    "id": "mccarran_airport_fnv",
    "name": "McCarran Airport",
    "lat": 36.0801,
    "lng": -115.1522,
    "lvl": 8,
    "rarity": "rare",
    "game": "fnv",
    "region": "mojave",
    "source": "fallout_canon"
  },
  {
    "id": "old_mormon_fort_fnv",
    "name": "Old Mormon Fort",
    "lat": 36.1694,
    "lng": -115.1305,
    "lvl": 6,
    "rarity": "common",
    "game": "fnv",
    "region": "mojave",
    "source": "fallout_canon"
  },
  {
    "id": "ultra_luxe_casino_fnv",
    "name": "Ultra-Luxe Casino",
    "lat": 36.0972,
    "lng": -115.1787,
    "lvl": 11,
    "rarity": "epic",
    "game": "fnv",
    "region": "mojave",
    "source": "fallout_canon"
  },
  {
    "id": "gomorrah_casino_fnv",
    "name": "Gomorrah Casino",
    "lat": 36.1100,
    "lng": -115.1720,
    "lvl": 10,
    "rarity": "epic",
    "game": "fnv",
    "region": "mojave",
    "source": "fallout_canon"
  },
  {
    "id": "silver_rush_fnv",
    "name": "Silver Rush",
    "lat": 36.1498,
    "lng": -115.1390,
    "lvl": 9,
    "rarity": "rare",
    "game": "fnv",
    "region": "mojave",
    "source": "fallout_canon"
  },
  {
    "id": "atomic_wrangler_fnv",
    "name": "Atomic Wrangler",
    "lat": 36.1499,
    "lng": -115.1383,
    "lvl": 8,
    "rarity": "rare",
    "game": "fnv",
    "region": "mojave",
    "source": "fallout_canon"
  },
  {
    "id": "nelson_ghost_town_fnv",
    "name": "Nelson Ghost Town",
    "lat": 35.4189,
    "lng": -114.7133,
    "lvl": 9,
    "rarity": "rare",
    "game": "fnv",
    "region": "mojave",
    "source": "fallout_canon"
  },
  {
    "id": "rhyolite_ghost_town_fnv",
    "name": "Rhyolite Ghost Town",
    "lat": 36.9033,
    "lng": -116.8283,
    "lvl": 11,
    "rarity": "rare",
    "game": "fnv",
    "region": "mojave",
    "source": "fallout_canon"
  },
  {
    "id": "mt_charleston_fnv",
    "name": "Mt Charleston",
    "lat": 36.2650,
    "lng": -115.6500,
    "lvl": 16,
    "rarity": "epic",
    "game": "fnv",
    "region": "mojave",
    "source": "fallout_canon"
  },
  {
    "id": "luxor_pyramid_fnv",
    "name": "Luxor Pyramid",
    "lat": 36.0965,
    "lng": -115.1769,
    "lvl": 9,
    "rarity": "rare",
    "game": "fnv",
    "region": "mojave",
    "source": "fallout_canon"
  },
  {
    "id": "whiskey_petes_fnv",
    "name": "Whiskey Pete's",
    "lat": 35.6167,
    "lng": -115.3900,
    "lvl": 3,
    "rarity": "common",
    "game": "fnv",
    "region": "mojave",
    "source": "fallout_canon"
  },
  {
    "id": "primm_valley_resort_fnv",
    "name": "Primm Valley Resort",
    "lat": 35.6160,
    "lng": -115.3900,
    "lvl": 3,
    "rarity": "common",
    "game": "fnv",
    "region": "mojave",
    "source": "fallout_canon"
  },
  {
    "id": "westgate_hotel_fnv",
    "name": "Westgate Hotel",
    "lat": 36.1311,
    "lng": -115.1564,
    "lvl": 10,
    "rarity": "epic",
    "game": "fnv",
    "region": "mojave",
    "source": "fallout_canon"
  },
  {
    "id": "coca_cola_factory_fnv",
    "name": "Coca Cola Factory",
    "lat": 36.1025,
    "lng": -115.1738,
    "lvl": 8,
    "rarity": "rare",
    "game": "fnv",
    "region": "mojave",
    "source": "fallout_canon"
  },
  {
    "id": "nellis_solar_array_fnv",
    "name": "Nellis Solar Array",
    "lat": 36.2460,
    "lng": -115.0320,
    "lvl": 15,
    "rarity": "epic",
    "game": "fnv",
    "region": "mojave",
    "source": "fallout_canon"
  },
  {
    "id": "ivanpah_solar_fnv",
    "name": "Ivanpah Solar",
    "lat": 35.2000,
    "lng": -115.4667,
    "lvl": 18,
    "rarity": "epic",
    "game": "fnv",
    "region": "mojave",
    "source": "fallout_canon"
  },
  {
    "id": "vicki_vance_museum_fnv",
    "name": "Vikki Vance Museum",
    "lat": 35.6150,
    "lng": -115.3850,
    "lvl": 4,
    "rarity": "common",
    "rads": 18,
    "game": "fnv",
    "region": "mojave",
    "source": "fallout_canon"
  },
  {
    "id": "mesquite_mountains_fnv",
    "name": "Mesquite Mountains",
    "lat": 35.8500,
    "lng": -115.9500,
    "lvl": 17,
    "rarity": "epic",
    "rads": 100,
    "game": "fnv",
    "region": "mojave",
    "source": "fallout_canon"
  },
  {
    "id": "devils_gullet_fnv",
    "name": "Devil's Gullet",
    "lat": 35.7000,
    "lng": -115.3000,
    "lvl": 23,
    "rarity": "epic",
    "rads": 150,
    "game": "fnv",
    "region": "mojave",
    "source": "fallout_canon"
  },
  {
    "id": "primm_schoolhouse_fnv",
    "name": "Primm Schoolhouse",
    "lat": 35.6150,
    "lng": -115.3850,
    "lvl": 3,
    "rarity": "common",
    "rads": 12,
    "game": "fnv",
    "region": "mojave",
    "source": "fallout_canon"
  }
]
