[
{"id":"vegas_humming_robot_fizzcode","name":"The Humming One","lat":36.1159,"lng":-115.1734,"lvl":1,"rarity":"legendary","iconKey":"ruins","region":"vegas_strip","game":"fo_new","source":"generated"},
{"id":"strip_gate_north_fnv","name":"Strip North Gate","lat":36.1719,"lng":-115.1394,"lvl":10,"rarity":"common","iconKey":"city","region":"strip","game":"fnv","source":"canon"},
{"id":"strip_gate_south_fnv","name":"Strip South Gate","lat":36.1688,"lng":-115.1398,"lvl":10,"rarity":"common","iconKey":"city","region":"strip","game":"fnv","source":"canon"},
{"id":"gomorrah_fnv","name":"Gomorrah","lat":36.1706,"lng":-115.1417,"lvl":12,"rarity":"rare","iconKey":"casino","region":"strip","game":"fnv","source":"canon"},
{"id":"ultra_luxe_fnv","name":"Ultra-Luxe","lat":36.1701,"lng":-115.1390,"lvl":12,"rarity":"rare","iconKey":"casino","region":"strip","game":"fnv","source":"canon"},
{"id":"the_tops_fnv","name":"The Tops Casino","lat":36.1704,"lng":-115.1405,"lvl":12,"rarity":"rare","iconKey":"casino","region":"strip","game":"fnv","source":"canon"},
{"id":"vault_21_hotel_fnv","name":"Vault 21 Hotel","lat":36.1708,"lng":-115.1388,"lvl":8,"rarity":"common","iconKey":"vault","region":"strip","game":"fnv","source":"canon"},
{"id":"lucky_38_fnv","name":"Lucky 38","lat":36.1700,"lng":-115.1422,"lvl":20,"rarity":"legendary","iconKey":"casino","region":"strip","game":"fnv","source":"canon"},
{"id":"strip_monorail_fnv","name":"Strip Monorail Station","lat":36.1694,"lng":-115.1430,"lvl":8,"rarity":"common","iconKey":"station","region":"strip","game":"fnv","source":"canon"},

{"id":"freeside_market_fnv","name":"Freeside Market","lat":36.170719,"lng":-115.143929,"lvl":5,"rarity":"common","iconKey":"market","region":"freeside","game":"fnv","source":"canon"},
{"id":"silver_rush_fnv","name":"Silver Rush","lat":36.1498,"lng":-115.1390,"lvl":9,"rarity":"rare","iconKey":"shop","region":"freeside","game":"fnv","source":"canon"},
{"id":"atomic_wrangler_fnv","name":"Atomic Wrangler","lat":36.1499,"lng":-115.1383,"lvl":8,"rarity":"rare","iconKey":"casino","region":"freeside","game":"fnv","source":"canon"},
{"id":"old_mormon_fort_fnv","name":"Old Mormon Fort","lat":36.1694,"lng":-115.1305,"lvl":6,"rarity":"common","iconKey":"fort","region":"freeside","game":"fnv","source":"canon"},

{"id":"bonnie_springs_fnv","name":"Bonnie Springs Ranch","lat":36.06007,"lng":-115.45027,"lvl":7,"rarity":"common","iconKey":"town","region":"outer_vegas","game":"fnv","source":"canon"},
{"id":"callville_bay_fnv","name":"Callville Bay Marina","lat":36.14400,"lng":-114.72200,"lvl":9,"rarity":"common","iconKey":"town","region":"outer_vegas","game":"fnv","source":"canon"},
{"id":"sloan_station_fnv","name":"Sloan Station","lat":35.94361,"lng":-115.21722,"lvl":5,"rarity":"common","iconKey":"town","region":"outer_vegas","game":"fnv","source":"canon"},
{"id":"jean_airport_fnv","name":"Jean Airport","lat":35.7677,"lng":-115.3245,"lvl":6,"rarity":"common","iconKey":"airport","region":"outer_vegas","game":"fnv","source":"canon"},
{"id":"mccarran_airport_fnv","name":"McCarran Airport","lat":36.0801,"lng":-115.1522,"lvl":8,"rarity":"rare","iconKey":"airport","region":"outer_vegas","game":"fnv","source":"canon"},
{"id":"nelson_ghost_town_fnv","name":"Nelson Ghost Town","lat":35.4189,"lng":-114.7133,"lvl":9,"rarity":"rare","iconKey":"ruins","region":"outer_vegas","game":"fnv","source":"canon"},
{"id":"rhyolite_ghost_town_fnv","name":"Rhyolite Ghost Town","lat":36.9033,"lng":-116.8283,"lvl":11,"rarity":"rare","iconKey":"ruins","region":"outer_vegas","game":"fnv","source":"canon"},
{"id":"whiskey_petes_fnv","name":"Whiskey Pete's","lat":35.6167,"lng":-115.3900,"lvl":3,"rarity":"common","iconKey":"casino","region":"outer_vegas","game":"fnv","source":"canon"},
{"id":"primm_valley_resort_fnv","name":"Primm Valley Resort","lat":35.6160,"lng":-115.3900,"lvl":3,"rarity":"common","iconKey":"casino","region":"outer_vegas","game":"fnv","source":"canon"},
{"id":"westgate_hotel_fnv","name":"Westgate Hotel","lat":36.1311,"lng":-115.1564,"lvl":10,"rarity":"epic","iconKey":"city","region":"outer_vegas","game":"fnv","source":"canon"},
{"id":"coca_cola_factory_fnv","name":"Coca Cola Factory","lat":36.1025,"lng":-115.1738,"lvl":8,"rarity":"rare","iconKey":"factory","region":"outer_vegas","game":"fnv","source":"canon"},

{"id":"goodsprings_saloon_fnv","name":"Goodsprings Saloon","lat":35.8324,"lng":-115.4320,"lvl":1,"rarity":"common","iconKey":"town","region":"mojave_towns","game":"fnv","source":"canon"},
{"id":"primm_rollercoaster_fnv","name":"Primm Rollercoaster","lat":35.6145,"lng":-115.3845,"lvl":2,"rarity":"common","iconKey":"town","region":"mojave_towns","game":"fnv","source":"canon"},
{"id":"novac_motel_fnv","name":"Novac Motel","lat":35.0525,"lng":-114.8247,"lvl":5,"rarity":"rare","iconKey":"town","region":"mojave_towns","game":"fnv","source":"canon"},
{"id":"nipton_trading_post_fnv","name":"Nipton Trading Post","lat":35.46667,"lng":-115.27222,"lvl":4,"rarity":"common","iconKey":"town","region":"mojave_towns","game":"fnv","source":"canon"},
{"id":"boulder_city_hotel_fnv","name":"Boulder City Hotel","lat":35.97750,"lng":-114.83639,"lvl":6,"rarity":"rare","iconKey":"town","region":"mojave_towns","game":"fnv","source":"canon"},
{"id":"jacobstown_fnv","name":"Jacobstown","lat":36.3000,"lng":-115.6500,"lvl":22,"rarity":"rare","iconKey":"town","region":"mojave_towns","game":"fnv","source":"canon"},
{"id":"searchlight_church_fnv","name":"Searchlight Church","lat":35.46434,"lng":-114.91844,"lvl":10,"rarity":"rare","iconKey":"town","region":"mojave_towns","game":"fnv","source":"canon"},
{"id":"cottonwood_cove_fnv","name":"Cottonwood Cove","lat":35.9990,"lng":-114.5000,"lvl":14,"rarity":"rare","iconKey":"town","region":"mojave_towns","game":"fnv","source":"canon"},

{"id":"helios_one_fnv","name":"Helios One","lat":35.7580,"lng":-114.9530,"lvl":13,"rarity":"epic","iconKey":"facility","region":"fnv_minor","game":"fnv","source":"canon"},
{"id":"repconn_test_site_fnv","name":"REPCONN Test Site","lat":36.0360,"lng":-115.0880,"lvl":12,"rarity":"rare","iconKey":"facility","region":"fnv_minor","game":"fnv","source":"canon"},
{"id":"repconn_headquarters_fnv","name":"REPCONN Headquarters","lat":36.0500,"lng":-115.1000,"lvl":13,"rarity":"rare","iconKey":"facility","region":"fnv_minor","game":"fnv","source":"canon"},
{"id":"188_trading_post_fnv","name":"188 Trading Post","lat":35.9500,"lng":-115.2000,"lvl":8,"rarity":"common","iconKey":"shop","region":"fnv_minor","game":"fnv","source":"canon"},
{"id":"griffin_caravan_fnv","name":"Griffin Caravan","lat":35.9000,"lng":-115.2500,"lvl":7,"rarity":"common","iconKey":"caravan","region":"fnv_minor","game":"fnv","source":"canon"},
{"id":"nevada_highway_patrol_fnv","name":"Nevada Highway Patrol","lat":35.9500,"lng":-115.1500,"lvl":6,"rarity":"common","iconKey":"ruins","region":"fnv_minor","game":"fnv","source":"canon"},
{"id":"sarsaparilla_hq_fnv","name":"Sunset Sarsaparilla HQ","lat":36.0000,"lng":-115.2000,"lvl":10,"rarity":"rare","iconKey":"factory","region":"fnv_minor","game":"fnv","source":"canon"},
{"id":"helios_one_entrance_fnv","name":"HELIOS One Entrance","lat":35.7600,"lng":-114.9500,"lvl":13,"rarity":"rare","iconKey":"facility","region":"fnv_minor","game":"fnv","source":"canon"},
{"id":"camp_searchlight_fnv","name":"Camp Searchlight","lat":35.4600,"lng":-114.9200,"lvl":11,"rarity":"rare","iconKey":"ruins","region":"fnv_minor","game":"fnv","source":"canon"},
{"id":"vicki_vance_museum_fnv","name":"Vikki & Vance Museum","lat":35.6150,"lng":-115.3850,"lvl":4,"rarity":"common","iconKey":"museum","region":"fnv_minor","game":"fnv","source":"canon"},
{"id":"primm_schoolhouse_fnv","name":"Primm Schoolhouse","lat":35.6150,"lng":-115.3850,"lvl":3,"rarity":"common","iconKey":"ruins","region":"fnv_minor","game":"fnv","source":"canon"},
{"id":"nipton_hall_fnv","name":"Nipton Hall","lat":35.4667,"lng":-115.2722,"lvl":5,"rarity":"common","iconKey":"ruins","region":"fnv_minor","game":"fnv","source":"canon"},
{"id":"boulder_city_ruins_fnv","name":"Boulder City Ruins","lat":35.9775,"lng":-114.8364,"lvl":7,"rarity":"common","iconKey":"ruins","region":"fnv_minor","game":"fnv","source":"canon"},

{"id":"ncr_capital_fnv","name":"NCR Capital (Vegas HQ)","lat":36.1699,"lng":-115.1398,"lvl":30,"rarity":"epic","iconKey":"faction","region":"fnv_factions","game":"fnv","source":"canon"},
{"id":"ncr_base_fnv","name":"NCR Base","lat":36.1699,"lng":-115.1398,"lvl":15,"rarity":"common","iconKey":"faction","region":"fnv_factions","game":"fnv","source":"canon"},
{"id":"brotherhood_bunker_fnv","name":"Brotherhood of Steel Bunker","lat":34.0522,"lng":-118.2437,"lvl":30,"rarity":"rare","iconKey":"bunker","region":"fnv_factions","game":"fnv","source":"canon"},
{"id":"followers_outpost_fnv","name":"Followers Outpost","lat":36.1699,"lng":-115.1398,"lvl":12,"rarity":"common","iconKey":"faction","region":"fnv_factions","game":"fnv","source":"canon"},
{"id":"gun_runners_fnv","name":"Gun Runners","lat":36.1699,"lng":-115.1398,"lvl":20,"rarity":"rare","iconKey":"shop","region":"fnv_factions","game":"fnv","source":"canon"},
{"id":"free_economic_zone_fnv","name":"Free Economic Zone","lat":36.1699,"lng":-115.1398,"lvl":18,"rarity":"common","iconKey":"faction","region":"fnv_factions","game":"fnv","source":"canon"},
{"id":"new_california_republic_fnv","name":"New California Republic Embassy","lat":36.1699,"lng":-115.1398,"lvl":25,"rarity":"rare","iconKey":"faction","region":"fnv_factions","game":"fnv","source":"canon"},
{"id":"cottonwood_cove_legion_fnv","name":"Cottonwood Cove (Legion)","lat":35.9990,"lng":-114.5000,"lvl":14,"rarity":"rare","iconKey":"faction","region":"fnv_factions","game":"fnv","source":"canon"},

{"id":"black_mountain_fnv","name":"Black Mountain","lat":35.9310,"lng":-115.0440,"lvl":20,"rarity":"epic","iconKey":"mountain","region":"fnv_wild","game":"fnv","source":"canon"},
{"id":"dead_wind_cavern_fnv","name":"Dead Wind Cavern","lat":35.8000,"lng":-115.4000,"lvl":40,"rarity":"legendary","iconKey":"cave","region":"fnv_wild","game":"fnv","source":"canon"},
{"id":"deathclaw_promontory_fnv","name":"Deathclaw Promontory","lat":36.1000,"lng":-114.9000,"lvl":45,"rarity":"legendary","iconKey":"danger","region":"fnv_wild","game":"fnv","source":"canon"},
{"id":"quarry_junction_fnv","name":"Quarry Junction","lat":35.9200,"lng":-115.1800,"lvl":35,"rarity":"epic","iconKey":"danger","region":"fnv_wild","game":"fnv","source":"canon"},
{"id":"mesquite_mountains_fnv","name":"Mesquite Mountains","lat":35.8500,"lng":-115.9500,"lvl":17,"rarity":"rare","iconKey":"mountain","region":"fnv_wild","game":"fnv","source":"canon"},
{"id":"devils_gullet_fnv","name":"Devil's Gullet","lat":35.7000,"lng":-115.3000,"lvl":23,"rarity":"rare","iconKey":"cave","region":"fnv_wild","game":"fnv","source":"canon"},
{"id":"cazador_hive_fnv","name":"Cazador Hive","lat":36.0000,"lng":-115.0000,"lvl":30,"rarity":"rare","iconKey":"danger","region":"fnv_wild","game":"fnv","source":"canon"},

{"id":"sierra_madre_villa_fnv","name":"Sierra Madre Villa","lat":36.0500,"lng":-115.1000,"lvl":20,"rarity":"epic","iconKey":"ruins","region":"fnv_dm","game":"fnv","source":"canon"},
{"id":"sierra_madre_casino_fnv","name":"Sierra Madre Casino","lat":36.0505,"lng":-115.0995,"lvl":25,"rarity":"legendary","iconKey":"casino","region":"fnv_dm","game":"fnv","source":"canon"},
{"id":"sierra_madre_lobby_fnv","name":"Sierra Madre Casino Lobby","lat":36.0506,"lng":-115.0994,"lvl":25,"rarity":"epic","iconKey":"casino","region":"fnv_dm","game":"fnv","source":"canon"},
{"id":"sierra_madre_suites_fnv","name":"Sierra Madre Suites","lat":36.0507,"lng":-115.0993,"lvl":24,"rarity":"rare","iconKey":"hotel","region":"fnv_dm","game":"fnv","source":"canon"},
{"id":"villa_residential_fnv","name":"Villa Residential District","lat":36.0495,"lng":-115.1005,"lvl":18,"rarity":"common","iconKey":"ruins","region":"fnv_dm","game":"fnv","source":"canon"},
{"id":"villa_police_station_fnv","name":"Villa Police Station","lat":36.0490,"lng":-115.1010,"lvl":19,"rarity":"rare","iconKey":"police","region":"fnv_dm","game":"fnv","source":"canon"},
{"id":"villa_medical_fnv","name":"Villa Medical District","lat":36.0488,"lng":-115.1012,"lvl":20,"rarity":"rare","iconKey":"hospital","region":"fnv_dm","game":"fnv","source":"canon"},
{"id":"villa_fountain_fnv","name":"Villa Fountain","lat":36.0498,"lng":-115.1002,"lvl":18,"rarity":"common","iconKey":"poi","region":"fnv_dm","game":"fnv","source":"canon"},
{"id":"switching_station_fnv","name":"Sierra Madre Switching Station","lat":36.0475,"lng":-115.1020,"lvl":22,"rarity":"rare","iconKey":"facility","region":"fnv_dm","game":"fnv","source":"canon"},
{"id":"cloud_zone_north_fnv","name":"Cloud Zone (North)","lat":36.0510,"lng":-115.0990,"lvl":30,"rarity":"epic","iconKey":"danger","region":"fnv_dm","game":"fnv","source":"canon"},
{"id":"cloud_zone_south_fnv","name":"Cloud Zone (South)","lat":36.0480,"lng":-115.1015,"lvl":30,"rarity":"epic","iconKey":"danger","region":"fnv_dm","game":"fnv","source":"canon"},
{"id":"villa_toxic_cloud_fnv","name":"Villa Toxic Cloud","lat":36.0490,"lng":-115.1008,"lvl":28,"rarity":"rare","iconKey":"danger","region":"fnv_dm","game":"fnv","source":"canon"},

{"id":"zion_canyon_fnv","name":"Zion Canyon","lat":37.3000,"lng":-113.0300,"lvl":15,"rarity":"common","iconKey":"wilderness","region":"fnv_hh","game":"fnv","source":"canon"},
{"id":"dead_horses_camp_fnv","name":"Dead Horses Camp","lat":37.3050,"lng":-113.0250,"lvl":18,"rarity":"rare","iconKey":"camp","region":"fnv_hh","game":"fnv","source":"canon"},
{"id":"sorrows_camp_fnv","name":"Sorrows Camp","lat":37.3100,"lng":-113.0200,"lvl":18,"rarity":"rare","iconKey":"camp","region":"fnv_hh","game":"fnv","source":"canon"},
{"id":"angel_cave_fnv","name":"Angel Cave","lat":37.3150,"lng":-113.0150,"lvl":20,"rarity":"rare","iconKey":"cave","region":"fnv_hh","game":"fnv","source":"canon"},
{"id":"three_marys_fnv","name":"Three Marys","lat":37.2950,"lng":-113.0400,"lvl":16,"rarity":"common","iconKey":"poi","region":"fnv_hh","game":"fnv","source":"canon"},
{"id":"zion_ranger_station_fnv","name":"Zion Ranger Station","lat":37.2980,"lng":-113.0500,"lvl":14,"rarity":"common","iconKey":"station","region":"fnv_hh","game":"fnv","source":"canon"},
{"id":"white_legs_encampment_fnv","name":"White Legs Encampment","lat":37.2850,"lng":-113.0600,"lvl":22,"rarity":"epic","iconKey":"camp","region":"fnv_hh","game":"fnv","source":"canon"},
{"id":"fallen_trees_pass_fnv","name":"Fallen Trees Pass","lat":37.2920,"lng":-113.0450,"lvl":17,"rarity":"common","iconKey":"wilderness","region":"fnv_hh","game":"fnv","source":"canon"},

{"id":"big_mt_crater_fnv","name":"Big MT Crater","lat":36.9000,"lng":-116.0500,"lvl":30,"rarity":"epic","iconKey":"wasteland","region":"fnv_owb","game":"fnv","source":"canon"},
{"id":"think_tank_fnv","name":"The Think Tank","lat":36.9010,"lng":-116.0490,"lvl":35,"rarity":"legendary","iconKey":"facility","region":"fnv_owb","game":"fnv","source":"canon"},
{"id":"x2_transmitter_fnv","name":"X-2 Transmitter Antenna Array","lat":36.9020,"lng":-116.0480,"lvl":28,"rarity":"rare","iconKey":"facility","region":"fnv_owb","game":"fnv","source":"canon"},
{"id":"x8_research_center_fnv","name":"X-8 Research Center","lat":36.9030,"lng":-116.0470,"lvl":32,"rarity":"epic","iconKey":"facility","region":"fnv_owb","game":"fnv","source":"canon"},
{"id":"x13_research_facility_fnv","name":"X-13 Research Facility","lat":36.9040,"lng":-116.0460,"lvl":34,"rarity":"epic","iconKey":"facility","region":"fnv_owb","game":"fnv","source":"canon"},
{"id":"x12_research_center_fnv","name":"X-12 Research Center","lat":36.9050,"lng":-116.0450,"lvl":30,"rarity":"rare","iconKey":"facility","region":"fnv_owb","game":"fnv","source":"canon"},
{"id":"x17_meteorology_fnv","name":"X-17 Meteorology Station","lat":36.9060,"lng":-116.0440,"lvl":26,"rarity":"common","iconKey":"facility","region":"fnv_owb","game":"fnv","source":"canon"},
{"id":"big_mt_central_facility_fnv","name":"Big MT Central Facility","lat":36.9070,"lng":-116.0430,"lvl":33,"rarity":"rare","iconKey":"facility","region":"fnv_owb","game":"fnv","source":"canon"},
{"id":"crater_lake_fnv","name":"Crater Lake","lat":36.9080,"lng":-116.0420,"lvl":22,"rarity":"common","iconKey":"wasteland","region":"fnv_owb","game":"fnv","source":"canon"},
{"id":"big_mt_sonic_emitters_fnv","name":"Sonic Emitter Testing Range","lat":36.9090,"lng":-116.0410,"lvl":27,"rarity":"rare","iconKey":"facility","region":"fnv_owb","game":"fnv","source":"canon"},

{"id":"the_divide_fnv","name":"The Divide","lat":36.4000,"lng":-116.4000,"lvl":35,"rarity":"epic","iconKey":"wasteland","region":"fnv_lr","game":"fnv","source":"canon"},
{"id":"hopeville_silo_fnv","name":"Hopeville Missile Silo","lat":36.4050,"lng":-116.3950,"lvl":40,"rarity":"legendary","iconKey":"facility","region":"fnv_lr","game":"fnv","source":"canon"},
{"id":"hopeville_ruins_fnv","name":"Hopeville Ruins","lat":36.4030,"lng":-116.3980,"lvl":32,"rarity":"rare","iconKey":"ruins","region":"fnv_lr","game":"fnv","source":"canon"},
{"id":"ashton_missile_silo_fnv","name":"Ashton Missile Silo","lat":36.4100,"lng":-116.3900,"lvl":42,"rarity":"legendary","iconKey":"facility","region":"fnv_lr","game":"fnv","source":"canon"},
{"id":"ashton_blast_zone_fnv","name":"Ashton Blast Zone","lat":36.4110,"lng":-116.3890,"lvl":38,"rarity":"epic","iconKey":"danger","region":"fnv_lr","game":"fnv","source":"canon"},
{"id":"highway_station_fnv","name":"Highway Station","lat":36.3950,"lng":-116.4050,"lvl":28,"rarity":"common","iconKey":"station","region":"fnv_lr","game":"fnv","source":"canon"},
{"id":"canyon_wreckage_fnv","name":"Canyon Wreckage","lat":36.3920,"lng":-116.4100,"lvl":25,"rarity":"common","iconKey":"ruins","region":"fnv_lr","game":"fnv","source":"canon"},
{"id":"ulysses_temple_fnv","name":"Ulysses' Temple","lat":36.4150,"lng":-116.3850,"lvl":45,"rarity":"legendary","iconKey":"facility","region":"fnv_lr","game":"fnv","source":"canon"},
{"id":"divide_municipal_building_fnv","name":"Divide Municipal Building","lat":36.3970,"lng":-116.4020,"lvl":30,"rarity":"rare","iconKey":"ruins","region":"fnv_lr","game":"fnv","source":"canon"},
{"id":"collapsed_overpass_fnv","name":"Collapsed Overpass","lat":36.3990,"lng":-116.4070,"lvl":27,"rarity":"common","iconKey":"ruins","region":"fnv_lr","game":"fnv","source":"canon"},

{"id":"adams_afb_reactor_fo3","name":"Adams AFB Reactor","lat":38.8000,"lng":-76.9000,"lvl":30,"rarity":"epic","iconKey":"reactor","region":"fo3","game":"fo3","source":"canon"},
{"id":"bethesda_reactor_fo3","name":"Bethesda Ruins Reactor","lat":39.0300,"lng":-77.1000,"lvl":20,"rarity":"rare","iconKey":"reactor","region":"fo3","game":"fo3","source":"canon"},
{"id":"megaton_fo3","name":"Megaton","lat":38.9100,"lng":-77.0200,"lvl":8,"rarity":"rare","iconKey":"town","region":"fo3","game":"fo3","source":"canon"},
{"id":"rivet_city_fo3","name":"Rivet City","lat":38.8719,"lng":-77.0000,"lvl":12,"rarity":"epic","iconKey":"city","region":"fo3","game":"fo3","source":"canon"},
{"id":"tenpenny_tower_fo3","name":"Tenpenny Tower","lat":38.9500,"lng":-77.0400,"lvl":14,"rarity":"rare","iconKey":"tower","region":"fo3","game":"fo3","source":"canon"},
{"id":"little_lamplight_fo3","name":"Little Lamplight","lat":39.0500,"lng":-77.3000,"lvl":10,"rarity":"common","iconKey":"town","region":"fo3","game":"fo3","source":"canon"},
{"id":"big_town_fo3","name":"Big Town","lat":39.0500,"lng":-77.2000,"lvl":8,"rarity":"common","iconKey":"town","region":"fo3","game":"fo3","source":"canon"},
{"id":"canterbury_commons_fo3","name":"Canterbury Commons","lat":39.2000,"lng":-77.2500,"lvl":12,"rarity":"common","iconKey":"town","region":"fo3","game":"fo3","source":"canon"},
{"id":"andale_fo3","name":"Andale","lat":38.8500,"lng":-77.1500,"lvl":10,"rarity":"common","iconKey":"town","region":"fo3","game":"fo3","source":"canon"},
{"id":"arefu_fo3","name":"Arefu","lat":39.1500,"lng":-77.3500,"lvl":9,"rarity":"common","iconKey":"town","region":"fo3","game":"fo3","source":"canon"},
{"id":"grayditch_fo3","name":"Grayditch","lat":38.8800,"lng":-76.9800,"lvl":6,"rarity":"common","iconKey":"town","region":"fo3","game":"fo3","source":"canon"},
{"id":"girder_shade_fo3","name":"GirderShade","lat":39.0000,"lng":-77.2800,"lvl":10,"rarity":"rare","iconKey":"town","region":"fo3","game":"fo3","source":"canon"},
{"id":"vault_101_fo3","name":"Vault 101","lat":38.9900,"lng":-77.0200,"lvl":5,"rarity":"common","iconKey":"vault","region":"fo3","game":"fo3","source":"canon"},
{"id":"vault_106_fo3","name":"Vault 106","lat":39.0000,"lng":-77.1500,"lvl":18,"rarity":"rare","iconKey":"vault","region":"fo3","game":"fo3","source":"canon"},
{"id":"vault_108_fo3","name":"Vault 108","lat":38.9500,"lng":-77.2000,"lvl":20,"rarity":"rare","iconKey":"vault","region":"fo3","game":"fo3","source":"canon"},
{"id":"vault_92_fo3","name":"Vault 92","lat":39.1500,"lng":-77.0500,"lvl":18,"rarity":"rare","iconKey":"vault","region":"fo3","game":"fo3","source":"canon"},
{"id":"vault_87_fo3","name":"Vault 87","lat":39.0700,"lng":-77.2800,"lvl":22,"rarity":"epic","iconKey":"vault","region":"fo3","game":"fo3","source":"canon"},
{"id":"vault_112_fo3","name":"Vault 112","lat":39.0000,"lng":-77.1200,"lvl":16,"rarity":"rare","iconKey":"vault","region":"fo3","game":"fo3","source":"canon"},
{"id":"jefferson_memorial_fo3","name":"Jefferson Memorial","lat":38.8814,"lng":-77.0365,"lvl":20,"rarity":"epic","iconKey":"facility","region":"fo3","game":"fo3","source":"canon"},
{"id":"galaxy_news_radio_fo3","name":"Galaxy News Radio","lat":38.9105,"lng":-77.0450,"lvl":15,"rarity":"rare","iconKey":"radio","region":"fo3","game":"fo3","source":"canon"},
{"id":"super_duper_mart_fo3","name":"Super-Duper Mart","lat":38.9000,"lng":-77.0300,"lvl":6,"rarity":"common","iconKey":"shop","region":"fo3","game":"fo3","source":"canon"},
{"id":"national_guard_depot_fo3","name":"National Guard Depot","lat":38.9500,"lng":-77.0100,"lvl":22,"rarity":"epic","iconKey":"facility","region":"fo3","game":"fo3","source":"canon"},
{"id":"robco_facility_fo3","name":"RobCo Facility","lat":38.8750,"lng":-77.0600,"lvl":14,"rarity":"rare","iconKey":"factory","region":"fo3","game":"fo3","source":"canon"},
{"id":"bethesda_ruins_fo3","name":"Bethesda Ruins","lat":39.0300,"lng":-77.1000,"lvl":14,"rarity":"common","iconKey":"ruins","region":"fo3","game":"fo3","source":"canon"},
{"id":"bethesda_offices_fo3","name":"Bethesda Offices","lat":39.0310,"lng":-77.1010,"lvl":15,"rarity":"common","iconKey":"ruins","region":"fo3","game":"fo3","source":"canon"},
{"id":"red_racer_factory_fo3","name":"Red Racer Factory","lat":38.9600,"lng":-77.0500,"lvl":16,"rarity":"rare","iconKey":"factory","region":"fo3","game":"fo3","source":"canon"},
{"id":"nuka_cola_plant_fo3","name":"Nuka-Cola Plant","lat":38.8900,"lng":-76.9900,"lvl":15,"rarity":"rare","iconKey":"factory","region":"fo3","game":"fo3","source":"canon"},
{"id":"mason_district_fo3","name":"Mason District","lat":38.8800,"lng":-77.0000,"lvl":17,"rarity":"common","iconKey":"ruins","region":"fo3","game":"fo3","source":"canon"},
{"id":"arlington_cemetery_fo3","name":"Arlington Cemetery","lat":38.8800,"lng":-77.0700,"lvl":14,"rarity":"rare","iconKey":"ruins","region":"fo3","game":"fo3","source":"canon"},
{"id":"arlington_library_fo3","name":"Arlington Library","lat":38.8810,"lng":-77.0720,"lvl":16,"rarity":"rare","iconKey":"ruins","region":"fo3","game":"fo3","source":"canon"},
{"id":"museum_of_history_fo3","name":"Museum of History","lat":38.8910,"lng":-77.0320,"lvl":14,"rarity":"common","iconKey":"museum","region":"fo3","game":"fo3","source":"canon"},
{"id":"national_archives_fo3","name":"National Archives","lat":38.8920,"lng":-77.0420,"lvl":18,"rarity":"rare","iconKey":"museum","region":"fo3","game":"fo3","source":"canon"},
{"id":"capitol_building_fo3","name":"Capitol Building","lat":38.8899,"lng":-77.0091,"lvl":20,"rarity":"epic","iconKey":"ruins","region":"fo3","game":"fo3","source":"canon"},
{"id":"statesman_hotel_fo3","name":"Statesman Hotel","lat":38.8925,"lng":-77.0205,"lvl":16,"rarity":"common","iconKey":"hotel","region":"fo3","game":"fo3","source":"canon"},
{"id":"trinity_tower_fo3","name":"Trinity Tower","lat":38.8922,"lng":-77.0180,"lvl":17,"rarity":"common","iconKey":"tower","region":"fo3","game":"fo3","source":"canon"},
{"id":"fort_constantine_fo3","name":"Fort Constantine","lat":39.2000,"lng":-77.3000,"lvl":22,"rarity":"epic","iconKey":"fort","region":"fo3","game":"fo3","source":"canon"},
{"id":"fort_bannister_fo3","name":"Fort Bannister","lat":38.7500,"lng":-77.2000,"lvl":18,"rarity":"rare","iconKey":"fort","region":"fo3","game":"fo3","source":"canon"},
{"id":"fort_independence_fo3","name":"Fort Independence","lat":38.8400,"lng":-77.0700,"lvl":17,"rarity":"rare","iconKey":"fort","region":"fo3","game":"fo3","source":"canon"},
{"id":"anchorage_memorial_fo3","name":"Anchorage Memorial","lat":38.8890,"lng":-77.0400,"lvl":10,"rarity":"common","iconKey":"ruins","region":"fo3","game":"fo3","source":"canon"},
{"id":"reilly_rangers_fo3","name":"Ranger Compound","lat":38.9050,"lng":-77.0300,"lvl":14,"rarity":"rare","iconKey":"camp","region":"fo3","game":"fo3","source":"canon"},
{"id":"regulator_hq_fo3","name":"Regulator HQ","lat":39.1000,"lng":-77.1500,"lvl":18,"rarity":"rare","iconKey":"camp","region":"fo3","game":"fo3","source":"canon"},
{"id":"slaver_town_paradise_falls_fo3","name":"Paradise Falls","lat":39.1000,"lng":-77.3500,"lvl":16,"rarity":"rare","iconKey":"camp","region":"fo3","game":"fo3","source":"canon"},
{"id":"smith_caseys_garage_fo3","name":"Smith Casey's Garage","lat":38.9950,"lng":-77.1150,"lvl":10,"rarity":"common","iconKey":"ruins","region":"fo3","game":"fo3","source":"canon"},
{"id":"minefield_fo3","name":"Minefield","lat":39.1200,"lng":-77.2500,"lvl":12,"rarity":"common","iconKey":"danger","region":"fo3","game":"fo3","source":"canon"},
{"id":"tepid_sewers_fo3","name":"Tepid Sewers","lat":38.8950,"lng":-77.0100,"lvl":8,"rarity":"common","iconKey":"sewer","region":"fo3","game":"fo3","source":"canon"},
{"id":"jury_street_metro_fo3","name":"Jury Street Metro Station","lat":39.0200,"lng":-77.1100,"lvl":14,"rarity":"common","iconKey":"metro","region":"fo3","game":"fo3","source":"canon"},
{"id":"dupont_station_fo3","name":"Dupont Circle Metro","lat":38.9100,"lng":-77.0455,"lvl":14,"rarity":"common","iconKey":"metro","region":"fo3","game":"fo3","source":"canon"},
{"id":"metro_central_fo3","name":"Metro Central","lat":38.8950,"lng":-77.0200,"lvl":16,"rarity":"common","iconKey":"metro","region":"fo3","game":"fo3","source":"canon"},
{"id":"farragut_metro_fo3","name":"Farragut West Metro","lat":38.9010,"lng":-77.0400,"lvl":13,"rarity":"common","iconKey":"metro","region":"fo3","game":"fo3","source":"canon"},
{"id":"evergreen_mills_fo3","name":"Evergreen Mills","lat":39.0500,"lng":-77.4000,"lvl":20,"rarity":"epic","iconKey":"raider","region":"fo3","game":"fo3","source":"canon"},
{"id":"jerrys_gas_n_go_fo3","name":"Jerrys Gas & Go","lat":39.0100,"lng":-77.2300,"lvl":8,"rarity":"common","iconKey":"ruins","region":"fo3","game":"fo3","source":"canon"},
{"id":"hallowed_moors_cemetery_fo3","name":"Hallowed Moors Cemetery","lat":38.8700,"lng":-77.1100,"lvl":16,"rarity":"rare","iconKey":"cemetery","region":"fo3","game":"fo3","source":"canon"},
{"id":"deathclaw_sanctuary_fo3","name":"Deathclaw Sanctuary","lat":39.2500,"lng":-77.4500,"lvl":24,"rarity":"legendary","iconKey":"danger","region":"fo3","game":"fo3","source":"canon"},
{"id":"old_olney_fo3","name":"Old Olney","lat":39.2000,"lng":-77.3500,"lvl":20,"rarity":"epic","iconKey":"ruins","region":"fo3","game":"fo3","source":"canon"},
{"id":"dunwich_building_fo3","name":"Dunwich Building","lat":38.8200,"lng":-77.3500,"lvl":20,"rarity":"epic","iconKey":"ruins","region":"fo3","game":"fo3","source":"canon"},
{"id":"rockopolis_fo3","name":"Rockopolis","lat":38.9300,"lng":-77.2800,"lvl":12,"rarity":"rare","iconKey":"cave","region":"fo3","game":"fo3","source":"canon"},
{"id":"meresti_trainyard_fo3","name":"Meresti Trainyard","lat":39.1800,"lng":-77.2800,"lvl":16,"rarity":"rare","iconKey":"station","region":"fo3","game":"fo3","source":"canon"},
{"id":"meresti_metro_station_fo3","name":"Meresti Metro Station","lat":39.1810,"lng":-77.2810,"lvl":16,"rarity":"rare","iconKey":"metro","region":"fo3","game":"fo3","source":"canon"},
{"id":"scrapyard_fo3","name":"Scrapyard","lat":39.0800,"lng":-77.2300,"lvl":8,"rarity":"common","iconKey":"ruins","region":"fo3","game":"fo3","source":"canon"},
{"id":"abandoned_car_tunnel_fo3","name":"Abandoned Car Tunnel","lat":39.0200,"lng":-77.2600,"lvl":10,"rarity":"common","iconKey":"tunnel","region":"fo3","game":"fo3","source":"canon"},
{"id":"yao_guai_tunnels_fo3","name":"Yao Guai Tunnels","lat":39.0000,"lng":-77.3200,"lvl":18,"rarity":"rare","iconKey":"cave","region":"fo3","game":"fo3","source":"canon"},

{"id":"sanctuary_fo4","name":"Sanctuary Hills","lat":42.4620,"lng":-71.2040,"lvl":1,"rarity":"common","iconKey":"town","region":"fo4","game":"fo4","source":"canon"},
{"id":"red_rocket_fo4","name":"Red Rocket Truck Stop","lat":42.4600,"lng":-71.2000,"lvl":2,"rarity":"common","iconKey":"shop","region":"fo4","game":"fo4","source":"canon"},
{"id":"concord_fo4","name":"Concord","lat":42.4610,"lng":-71.1800,"lvl":3,"rarity":"common","iconKey":"town","region":"fo4","game":"fo4","source":"canon"},
{"id":"museum_freedom_fo4","name":"Museum of Freedom","lat":42.4615,"lng":-71.1780,"lvl":4,"rarity":"common","iconKey":"museum","region":"fo4","game":"fo4","source":"canon"},
{"id":"starlight_drivein_fo4","name":"Starlight Drive-In","lat":42.4700,"lng":-71.1600,"lvl":5,"rarity":"common","iconKey":"ruins","region":"fo4","game":"fo4","source":"canon"},
{"id":"tenpines_bluff_fo4","name":"Tenpines Bluff","lat":42.5000,"lng":-71.1500,"lvl":6,"rarity":"common","iconKey":"farm","region":"fo4","game":"fo4","source":"canon"},
{"id":"oberland_station_fo4","name":"Oberland Station","lat":42.3800,"lng":-71.1600,"lvl":7,"rarity":"common","iconKey":"station","region":"fo4","game":"fo4","source":"canon"},
{"id":"sunshine_tidings_fo4","name":"Sunshine Tidings Co-op","lat":42.4200,"lng":-71.3000,"lvl":8,"rarity":"common","iconKey":"farm","region":"fo4","game":"fo4","source":"canon"},
{"id":"greygarden_fo4","name":"Greygarden","lat":42.3800,"lng":-71.2000,"lvl":10,"rarity":"rare","iconKey":"farm","region":"fo4","game":"fo4","source":"canon"},
{"id":"covenant_fo4","name":"Covenant","lat":42.5200,"lng":-71.1800,"lvl":12,"rarity":"rare","iconKey":"town","region":"fo4","game":"fo4","source":"canon"},
{"id":"vault_111_fo4","name":"Vault 111","lat":42.4630,"lng":-71.2050,"lvl":1,"rarity":"common","iconKey":"vault","region":"fo4","game":"fo4","source":"canon"},
{"id":"vault_81_fo4","name":"Vault 81","lat":42.3500,"lng":-71.1200,"lvl":18,"rarity":"rare","iconKey":"vault","region":"fo4","game":"fo4","source":"canon"},
{"id":"vault_95_fo4","name":"Vault 95","lat":42.2000,"lng":-71.3500,"lvl":25,"rarity":"epic","iconKey":"vault","region":"fo4","game":"fo4","source":"canon"},
{"id":"vault_75_fo4","name":"Vault 75","lat":42.3800,"lng":-71.0500,"lvl":20,"rarity":"rare","iconKey":"vault","region":"fo4","game":"fo4","source":"canon"},
{"id":"vault_114_fo4","name":"Vault 114","lat":42.3600,"lng":-71.0700,"lvl":22,"rarity":"rare","iconKey":"vault","region":"fo4","game":"fo4","source":"canon"},
{"id":"diamond_city_fo4","name":"Diamond City","lat":42.3460,"lng":-71.0820,"lvl":15,"rarity":"epic","iconKey":"city","region":"fo4","game":"fo4","source":"canon"},
{"id":"goodneighbor_fo4","name":"Goodneighbor","lat":42.3550,"lng":-71.0650,"lvl":18,"rarity":"rare","iconKey":"city","region":"fo4","game":"fo4","source":"canon"},
{"id":"bunker_hill_fo4","name":"Bunker Hill","lat":42.3740,"lng":-71.0600,"lvl":16,"rarity":"rare","iconKey":"town","region":"fo4","game":"fo4","source":"canon"},
{"id":"combat_zone_fo4","name":"Combat Zone","lat":42.3500,"lng":-71.0650,"lvl":20,"rarity":"rare","iconKey":"arena","region":"fo4","game":"fo4","source":"canon"},
{"id":"trinity_tower_fo4","name":"Trinity Tower","lat":42.3600,"lng":-71.0700,"lvl":22,"rarity":"rare","iconKey":"tower","region":"fo4","game":"fo4","source":"canon"},
{"id":"mass_fusion_fo4","name":"Mass Fusion Building","lat":42.3580,"lng":-71.0580,"lvl":25,"rarity":"epic","iconKey":"facility","region":"fo4","game":"fo4","source":"canon"},
{"id":"old_north_church_fo4","name":"Old North Church","lat":42.3660,"lng":-71.0540,"lvl":18,"rarity":"rare","iconKey":"church","region":"fo4","game":"fo4","source":"canon"},
{"id":"boston_public_library_fo4","name":"Boston Public Library","lat":42.3490,"lng":-71.0780,"lvl":20,"rarity":"rare","iconKey":"library","region":"fo4","game":"fo4","source":"canon"},
{"id":"police_station_cambridge_fo4","name":"Cambridge Police Station","lat":42.3730,"lng":-71.1100,"lvl":12,"rarity":"common","iconKey":"police","region":"fo4","game":"fo4","source":"canon"},
{"id":"prydwen_fo4","name":"The Prydwen","lat":42.3500,"lng":-71.0800,"lvl":30,"rarity":"legendary","iconKey":"airship","region":"fo4","game":"fo4","source":"canon"},
{"id":"cambridge_bos_fo4","name":"Cambridge BoS Outpost","lat":42.3735,"lng":-71.1105,"lvl":15,"rarity":"rare","iconKey":"faction","region":"fo4","game":"fo4","source":"canon"},
{"id":"railroad_hq_fo4","name":"Railroad HQ","lat":42.3665,"lng":-71.0545,"lvl":20,"rarity":"rare","iconKey":"faction","region":"fo4","game":"fo4","source":"canon"},
{"id":"institute_fo4","name":"The Institute","lat":42.3600,"lng":-71.0589,"lvl":40,"rarity":"legendary","iconKey":"facility","region":"fo4","game":"fo4","source":"canon"},
{"id":"fort_hagen_fo4","name":"Fort Hagen","lat":42.3200,"lng":-71.1200,"lvl":18,"rarity":"rare","iconKey":"fort","region":"fo4","game":"fo4","source":"canon"},
{"id":"revere_satellite_fo4","name":"Revere Satellite Array","lat":42.4100,"lng":-70.9900,"lvl":25,"rarity":"epic","iconKey":"facility","region":"fo4","game":"fo4","source":"canon"},
{"id":"saugus_ironworks_fo4","name":"Saugus Ironworks","lat":42.4700,"lng":-71.0100,"lvl":22,"rarity":"rare","iconKey":"factory","region":"fo4","game":"fo4","source":"canon"},
{"id":"lynn_woods_fo4","name":"Lynn Woods","lat":42.4800,"lng":-71.0400,"lvl":20,"rarity":"rare","iconKey":"ruins","region":"fo4","game":"fo4","source":"canon"},
{"id":"the_castle_fo4","name":"The Castle","lat":42.3380,"lng":-71.0300,"lvl":25,"rarity":"epic","iconKey":"fort","region":"fo4","game":"fo4","source":"canon"},
{"id":"spectacle_island_fo4","name":"Spectacle Island","lat":42.3200,"lng":-70.9900,"lvl":30,"rarity":"epic","iconKey":"island","region":"fo4","game":"fo4","source":"canon"},
{"id":"glowing_sea_fo4","name":"The Glowing Sea","lat":42.1500,"lng":-71.4500,"lvl":35,"rarity":"legendary","iconKey":"danger","region":"fo4","game":"fo4","source":"canon"},
{"id":"crater_of_atom_fo4","name":"Crater of Atom","lat":42.1400,"lng":-71.4600,"lvl":38,"rarity":"epic","iconKey":"religion","region":"fo4","game":"fo4","source":"canon"},
{"id":"virgil_lab_fo4","name":"Virgil's Laboratory","lat":42.1300,"lng":-71.4700,"lvl":32,"rarity":"rare","iconKey":"facility","region":"fo4","game":"fo4","source":"canon"},
{"id":"quincy_ruins_fo4","name":"Quincy Ruins","lat":42.2500,"lng":-71.0000,"lvl":28,"rarity":"epic","iconKey":"ruins","region":"fo4","game":"fo4","source":"canon"},
{"id":"jamaica_plain_fo4","name":"Jamaica Plain","lat":42.3000,"lng":-71.1200,"lvl":20,"rarity":"rare","iconKey":"ruins","region":"fo4","game":"fo4","source":"canon"},
{"id":"milton_general_fo4","name":"Milton General Hospital","lat":42.2800,"lng":-71.1400,"lvl":22,"rarity":"rare","iconKey":"hospital","region":"fo4","game":"fo4","source":"canon"},
{"id":"medford_memorial_fo4","name":"Medford Memorial Hospital","lat":42.4200,"lng":-71.1000,"lvl":18,"rarity":"common","iconKey":"hospital","region":"fo4","game":"fo4","source":"canon"},
{"id":"malden_center_fo4","name":"Malden Center","lat":42.4300,"lng":-71.0700,"lvl":16,"rarity":"common","iconKey":"metro","region":"fo4","game":"fo4","source":"canon"},
{"id":"revere_beach_fo4","name":"Revere Beach Station","lat":42.4100,"lng":-70.9900,"lvl":14,"rarity":"common","iconKey":"metro","region":"fo4","game":"fo4","source":"canon"},

{"id":"vault_76_fo76","name":"Vault 76","lat":39.0000,"lng":-79.0000,"lvl":1,"rarity":"common","iconKey":"vault","region":"fo76","game":"fo76","source":"canon"},
{"id":"flatwoods_fo76","name":"Flatwoods","lat":38.9900,"lng":-79.0100,"lvl":5,"rarity":"common","iconKey":"town","region":"fo76","game":"fo76","source":"canon"},
{"id":"morgantown_fo76","name":"Morgantown","lat":39.6300,"lng":-79.9500,"lvl":8,"rarity":"common","iconKey":"city","region":"fo76","game":"fo76","source":"canon"},
{"id":"morgantown_airport_fo76","name":"Morgantown Airport","lat":39.6450,"lng":-79.9150,"lvl":10,"rarity":"common","iconKey":"airport","region":"fo76","game":"fo76","source":"canon"},
{"id":"grafton_fo76","name":"Grafton","lat":39.3400,"lng":-80.0200,"lvl":12,"rarity":"common","iconKey":"town","region":"fo76","game":"fo76","source":"canon"},
{"id":"grafton_dam_fo76","name":"Grafton Dam","lat":39.3500,"lng":-80.0000,"lvl":14,"rarity":"rare","iconKey":"facility","region":"fo76","game":"fo76","source":"canon"},
{"id":"vault_63_fo76","name":"Vault 63","lat":38.1500,"lng":-81.0500,"lvl":30,"rarity":"epic","iconKey":"vault","region":"fo76","game":"fo76","source":"canon"},
{"id":"vault_94_fo76","name":"Vault 94","lat":39.5000,"lng":-79.3000,"lvl":35,"rarity":"epic","iconKey":"vault","region":"fo76","game":"fo76","source":"canon"},
{"id":"vault_96_fo76","name":"Vault 96","lat":38.2000,"lng":-80.5000,"lvl":40,"rarity":"legendary","iconKey":"vault","region":"fo76","game":"fo76","source":"canon"},
{"id":"charleston_fo76","name":"Charleston","lat":38.3500,"lng":-81.6300,"lvl":15,"rarity":"common","iconKey":"city","region":"fo76","game":"fo76","source":"canon"},
{"id":"charleston_capitol_fo76","name":"Charleston Capitol Building","lat":38.3360,"lng":-81.6120,"lvl":18,"rarity":"rare","iconKey":"facility","region":"fo76","game":"fo76","source":"canon"},
{"id":"charleston_fire_dept_fo76","name":"Charleston Fire Department","lat":38.3370,"lng":-81.6100,"lvl":16,"rarity":"common","iconKey":"fire","region":"fo76","game":"fo76","source":"canon"},
{"id":"airport_charleston_fo76","name":"Charleston Airport","lat":38.3700,"lng":-81.5900,"lvl":18,"rarity":"common","iconKey":"airport","region":"fo76","game":"fo76","source":"canon"},
{"id":"watoga_fo76","name":"Watoga","lat":38.0500,"lng":-80.5500,"lvl":40,"rarity":"epic","iconKey":"city","region":"fo76","game":"fo76","source":"canon"},
{"id":"watoga_civic_center_fo76","name":"Watoga Civic Center","lat":38.0480,"lng":-80.5480,"lvl":42,"rarity":"rare","iconKey":"facility","region":"fo76","game":"fo76","source":"canon"},
{"id":"watoga_transit_hub_fo76","name":"Watoga Transit Hub","lat":38.0490,"lng":-80.5520,"lvl":38,"rarity":"common","iconKey":"station","region":"fo76","game":"fo76","source":"canon"},
{"id":"harpers_ferry_fo76","name":"Harpers Ferry","lat":39.3250,"lng":-77.7400,"lvl":30,"rarity":"rare","iconKey":"town","region":"fo76","game":"fo76","source":"canon"},
{"id":"berkeley_springs_fo76","name":"Berkeley Springs","lat":39.6300,"lng":-78.2300,"lvl":20,"rarity":"common","iconKey":"town","region":"fo76","game":"fo76","source":"canon"},
{"id":"point_pleasant_fo76","name":"Point Pleasant","lat":38.8900,"lng":-82.1300,"lvl":18,"rarity":"rare","iconKey":"town","region":"fo76","game":"fo76","source":"canon"},
{"id":"mothman_museum_fo76","name":"Mothman Museum","lat":38.8905,"lng":-82.1305,"lvl":20,"rarity":"rare","iconKey":"museum","region":"fo76","game":"fo76","source":"canon"},
{"id":"top_of_the_world_fo76","name":"Top of the World","lat":38.7000,"lng":-79.5300,"lvl":25,"rarity":"rare","iconKey":"tower","region":"fo76","game":"fo76","source":"canon"},
{"id":"pleasant_valley_ski_fo76","name":"Pleasant Valley Ski Resort","lat":38.6900,"lng":-79.5400,"lvl":22,"rarity":"common","iconKey":"resort","region":"fo76","game":"fo76","source":"canon"},
{"id":"monongah_mine_fo76","name":"Monongah Mine","lat":39.5300,"lng":-80.2100,"lvl":30,"rarity":"rare","iconKey":"mine","region":"fo76","game":"fo76","source":"canon"},
{"id":"white_springs_fo76","name":"White Springs Resort","lat":38.7500,"lng":-80.3000,"lvl":28,"rarity":"rare","iconKey":"resort","region":"fo76","game":"fo76","source":"canon"},
{"id":"white_springs_bunker_fo76","name":"White Springs Bunker","lat":38.7480,"lng":-80.2980,"lvl":35,"rarity":"epic","iconKey":"bunker","region":"fo76","game":"fo76","source":"canon"},
{"id":"fort_defiance_fo76","name":"Fort Defiance","lat":38.1000,"lng":-80.5500,"lvl":40,"rarity":"epic","iconKey":"fort","region":"fo76","game":"fo76","source":"canon"},
{"id":"camp_venture_fo76","name":"Camp Venture","lat":38.1200,"lng":-80.5300,"lvl":32,"rarity":"rare","iconKey":"camp","region":"fo76","game":"fo76","source":"canon"},
{"id":"the_bog_fo76","name":"Cranberry Bog","lat":38.2000,"lng":-80.6000,"lvl":35,"rarity":"epic","iconKey":"wasteland","region":"fo76","game":"fo76","source":"canon"},
{"id":"quarry_x3_fo76","name":"Quarry X3","lat":38.2100,"lng":-80.6200,"lvl":38,"rarity":"rare","iconKey":"danger","region":"fo76","game":"fo76","source":"canon"},
{"id":"fissure_site_prime_fo76","name":"Fissure Site Prime","lat":38.1800,"lng":-80.6500,"lvl":50,"rarity":"legendary","iconKey":"danger","region":"fo76","game":"fo76","source":"canon"},
{"id":"toxic_valley_fo76","name":"Toxic Valley","lat":39.3500,"lng":-80.0000,"lvl":10,"rarity":"common","iconKey":"wasteland","region":"fo76","game":"fo76","source":"canon"},
{"id":"wavy_willards_fo76","name":"Wavy Willard's Water Park","lat":39.3600,"lng":-80.0200,"lvl":12,"rarity":"common","iconKey":"park","region":"fo76","game":"fo76","source":"canon"},
{"id":"ash_heap_fo76","name":"Ash Heap","lat":38.2000,"lng":-81.2000,"lvl":20,"rarity":"common","iconKey":"wasteland","region":"fo76","game":"fo76","source":"canon"},
{"id":"welch_fo76","name":"Welch","lat":38.2000,"lng":-81.2100,"lvl":18,"rarity":"common","iconKey":"town","region":"fo76","game":"fo76","source":"canon"},
{"id":"mount_blair_fo76","name":"Mount Blair","lat":38.1500,"lng":-81.2500,"lvl":25,"rarity":"rare","iconKey":"mine","region":"fo76","game":"fo76","source":"canon"},
{"id":"the_mire_fo76","name":"The Mire","lat":39.3000,"lng":-78.3000,"lvl":25,"rarity":"rare","iconKey":"wasteland","region":"fo76","game":"fo76","source":"canon"},
{"id":"dolly_sods_fo76","name":"Dolly Sods Wilderness","lat":39.1000,"lng":-79.3000,"lvl":28,"rarity":"rare","iconKey":"wilderness","region":"fo76","game":"fo76","source":"canon"},
{"id":"tnt_dome_fo76","name":"TNT Dome","lat":39.3200,"lng":-78.3100,"lvl":30,"rarity":"rare","iconKey":"facility","region":"fo76","game":"fo76","source":"canon"},

{"id":"mariposa_reactor_fo1","name":"Mariposa Nuclear Vault","lat":37.0000,"lng":-119.0000,"lvl":25,"rarity":"epic","iconKey":"reactor","region":"nuclear_sites","game":"fo1","source":"canon"},
{"id":"gecko_reactor_fo2","name":"Gecko Nuclear Reactor","lat":40.7500,"lng":-116.9000,"lvl":20,"rarity":"rare","iconKey":"reactor","region":"nuclear_sites","game":"fo2","source":"canon"},
{"id":"oil_rig_reactor_fo2","name":"Enclave Oil Rig Reactor","lat":36.0000,"lng":-130.0000,"lvl":40,"rarity":"legendary","iconKey":"reactor","region":"nuclear_sites","game":"fo2","source":"canon"},
{"id":"shady_sands_fo1","name":"Shady Sands","lat":36.8000,"lng":-116.9500,"lvl":5,"rarity":"common","iconKey":"town","region":"fo1_2","game":"fo1","source":"canon"},
{"id":"junkyard_fo1","name":"The Hub","lat":34.0500,"lng":-118.2500,"lvl":10,"rarity":"rare","iconKey":"city","region":"fo1_2","game":"fo1","source":"canon"},
{"id":"necropolis_fo1","name":"Necropolis","lat":34.1000,"lng":-118.2000,"lvl":12,"rarity":"rare","iconKey":"ruins","region":"fo1_2","game":"fo1","source":"canon"},
{"id":"boneyard_fo1","name":"The Boneyard","lat":34.0000,"lng":-118.2500,"lvl":14,"rarity":"rare","iconKey":"ruins","region":"fo1_2","game":"fo1","source":"canon"},
{"id":"cathedral_fo1","name":"Cathedral","lat":34.0050,"lng":-118.2600,"lvl":20,"rarity":"epic","iconKey":"church","region":"fo1_2","game":"fo1","source":"canon"},
{"id":"lost_hills_fo1","name":"Lost Hills Brotherhood Bunker","lat":34.2000,"lng":-118.4500,"lvl":18,"rarity":"rare","iconKey":"bunker","region":"fo1_2","game":"fo1","source":"canon"},
{"id":"mariposa_fo1","name":"Mariposa Military Base","lat":37.0000,"lng":-119.0000,"lvl":25,"rarity":"epic","iconKey":"facility","region":"fo1_2","game":"fo1","source":"canon"},
{"id":"vault_13_fo1","name":"Vault 13","lat":36.9000,"lng":-116.9000,"lvl":1,"rarity":"common","iconKey":"vault","region":"fo1_2","game":"fo1","source":"canon"},
{"id":"vault_15_fo1","name":"Vault 15","lat":36.8500,"lng":-116.9200,"lvl":8,"rarity":"common","iconKey":"vault","region":"fo1_2","game":"fo1","source":"canon"},
{"id":"arroyo_fo2","name":"Arroyo","lat":41.0000,"lng":-123.0000,"lvl":1,"rarity":"common","iconKey":"town","region":"fo1_2","game":"fo2","source":"canon"},
{"id":"klamath_fo2","name":"Klamath","lat":41.5000,"lng":-122.5000,"lvl":4,"rarity":"common","iconKey":"town","region":"fo1_2","game":"fo2","source":"canon"},
{"id":"the_den_fo2","name":"The Den","lat":40.8000,"lng":-124.0000,"lvl":6,"rarity":"common","iconKey":"town","region":"fo1_2","game":"fo2","source":"canon"},
{"id":"modoc_fo2","name":"Modoc","lat":41.6000,"lng":-120.5000,"lvl":8,"rarity":"common","iconKey":"town","region":"fo1_2","game":"fo2","source":"canon"},
{"id":"vault_city_fo2","name":"Vault City","lat":40.7000,"lng":-116.8000,"lvl":12,"rarity":"rare","iconKey":"city","region":"fo1_2","game":"fo2","source":"canon"},
{"id":"gecko_fo2","name":"Gecko","lat":40.7500,"lng":-116.9000,"lvl":10,"rarity":"common","iconKey":"reactor","region":"fo1_2","game":"fo2","source":"canon"},
{"id":"redding_fo2","name":"Redding","lat":40.6000,"lng":-122.4000,"lvl":10,"rarity":"common","iconKey":"town","region":"fo1_2","game":"fo2","source":"canon"},
{"id":"new_reno_fo2","name":"New Reno","lat":39.5300,"lng":-119.8100,"lvl":15,"rarity":"rare","iconKey":"city","region":"fo1_2","game":"fo2","source":"canon"},
{"id":"broken_hills_fo2","name":"Broken Hills","lat":40.0000,"lng":-118.0000,"lvl":14,"rarity":"rare","iconKey":"town","region":"fo1_2","game":"fo2","source":"canon"},
{"id":"new_california_republic_fo2","name":"NCR (Shady Sands Expanded)","lat":36.8000,"lng":-116.9500,"lvl":20,"rarity":"epic","iconKey":"city","region":"fo1_2","game":"fo2","source":"canon"},
{"id":"san_francisco_fo2","name":"San Francisco","lat":37.7749,"lng":-122.4194,"lvl":25,"rarity":"epic","iconKey":"city","region":"fo1_2","game":"fo2","source":"canon"},
{"id":"navarro_fo2","name":"Navarro Enclave Base","lat":38.0000,"lng":-121.5000,"lvl":30,"rarity":"legendary","iconKey":"facility","region":"fo1_2","game":"fo2","source":"canon"},
{"id":"oil_rig_fo2","name":"Enclave Oil Rig","lat":36.0000,"lng":-130.0000,"lvl":40,"rarity":"legendary","iconKey":"facility","region":"fo1_2","game":"fo2","source":"canon"},

{"id":"brahmin_wood_fot","name":"Brahmin Wood","lat":41.0000,"lng":-89.0000,"lvl":1,"rarity":"common","iconKey":"town","region":"fot","game":"fot","source":"canon"},
{"id":"rock_falls_fot","name":"Rock Falls","lat":41.2000,"lng":-89.2000,"lvl":3,"rarity":"common","iconKey":"town","region":"fot","game":"fot","source":"canon"},
{"id":"mardin_fot","name":"Mardin","lat":41.3000,"lng":-89.3000,"lvl":4,"rarity":"common","iconKey":"town","region":"fot","game":"fot","source":"canon"},
{"id":"quincy_fot","name":"Quincy","lat":39.9300,"lng":-91.4000,"lvl":6,"rarity":"common","iconKey":"town","region":"fot","game":"fot","source":"canon"},
{"id":"macomb_fot","name":"Macomb","lat":40.4600,"lng":-90.6700,"lvl":8,"rarity":"common","iconKey":"town","region":"fot","game":"fot","source":"canon"},
{"id":"springfield_fot","name":"Springfield","lat":39.8000,"lng":-89.6500,"lvl":10,"rarity":"rare","iconKey":"town","region":"fot","game":"fot","source":"canon"},
{"id":"great_bend_fot","name":"Great Bend","lat":38.3600,"lng":-98.7800,"lvl":12,"rarity":"rare","iconKey":"ruins","region":"fot","game":"fot","source":"canon"},
{"id":"junction_city_fot","name":"Junction City","lat":39.0300,"lng":-96.8300,"lvl":14,"rarity":"common","iconKey":"town","region":"fot","game":"fot","source":"canon"},
{"id":"coldwater_fot","name":"Coldwater","lat":38.0800,"lng":-99.3300,"lvl":16,"rarity":"rare","iconKey":"town","region":"fot","game":"fot","source":"canon"},
{"id":"st_louis_fot","name":"St. Louis","lat":38.6270,"lng":-90.1990,"lvl":18,"rarity":"epic","iconKey":"city","region":"fot","game":"fot","source":"canon"},
{"id":"delta_fot","name":"Delta","lat":38.5000,"lng":-90.3000,"lvl":20,"rarity":"rare","iconKey":"town","region":"fot","game":"fot","source":"canon"},
{"id":"kansas_city_fot","name":"Kansas City","lat":39.0997,"lng":-94.5786,"lvl":22,"rarity":"epic","iconKey":"city","region":"fot","game":"fot","source":"canon"},
{"id":"osceola_fot","name":"Osceola","lat":38.0400,"lng":-93.7000,"lvl":24,"rarity":"rare","iconKey":"town","region":"fot","game":"fot","source":"canon"},
{"id":"jefferson_fot","name":"Jefferson","lat":38.5800,"lng":-92.1700,"lvl":26,"rarity":"rare","iconKey":"town","region":"fot","game":"fot","source":"canon"},
{"id":"springfield_reaver_fot","name":"Reaver Settlement (Springfield)","lat":39.7900,"lng":-89.6400,"lvl":28,"rarity":"rare","iconKey":"faction","region":"fot","game":"fot","source":"canon"},
{"id":"canyon_city_fot","name":"Canyon City","lat":38.9000,"lng":-104.7000,"lvl":30,"rarity":"epic","iconKey":"ruins","region":"fot","game":"fot","source":"canon"},
{"id":"bunker_alpha_fot","name":"Brotherhood Bunker Alpha","lat":41.1000,"lng":-89.1000,"lvl":5,"rarity":"rare","iconKey":"bunker","region":"fot","game":"fot","source":"canon"},
{"id":"bunker_beta_fot","name":"Brotherhood Bunker Beta","lat":40.5000,"lng":-90.5000,"lvl":10,"rarity":"rare","iconKey":"bunker","region":"fot","game":"fot","source":"canon"},
{"id":"bunker_gamma_fot","name":"Brotherhood Bunker Gamma","lat":39.8000,"lng":-89.7000,"lvl":15,"rarity":"rare","iconKey":"bunker","region":"fot","game":"fot","source":"canon"},
{"id":"bunker_delta_fot","name":"Brotherhood Bunker Delta","lat":38.6000,"lng":-90.2000,"lvl":20,"rarity":"rare","iconKey":"bunker","region":"fot","game":"fot","source":"canon"},
{"id":"bunker_epsilon_fot","name":"Brotherhood Bunker Epsilon","lat":39.1000,"lng":-94.6000,"lvl":25,"rarity":"rare","iconKey":"bunker","region":"fot","game":"fot","source":"canon"},
{"id":"bunker_zeta_fot","name":"Brotherhood Bunker Zeta","lat":38.9000,"lng":-104.7000,"lvl":30,"rarity":"epic","iconKey":"bunker","region":"fot","game":"fot","source":"canon"},
{"id":"robot_factory_fot","name":"Robot Factory","lat":38.8500,"lng":-104.6500,"lvl":32,"rarity":"epic","iconKey":"facility","region":"fot","game":"fot","source":"canon"},
{"id":"vault_0_fot","name":"Vault 0","lat":38.9000,"lng":-104.8000,"lvl":40,"rarity":"legendary","iconKey":"vault","region":"fot","game":"fot","source":"canon"},

{"id":"brahmin_wood_bos","name":"Brahmin Wood","lat":34.2000,"lng":-118.4500,"lvl":1,"rarity":"common","iconKey":"town","region":"bos","game":"bos","source":"canon"},
{"id":"los_bos","name":"Los","lat":34.0500,"lng":-118.2500,"lvl":5,"rarity":"rare","iconKey":"city","region":"bos","game":"bos","source":"canon"},
{"id":"los_sewers_bos","name":"Los Sewers","lat":34.0490,"lng":-118.2490,"lvl":6,"rarity":"common","iconKey":"sewer","region":"bos","game":"bos","source":"canon"},
{"id":"los_ruins_bos","name":"Los Ruins","lat":34.0480,"lng":-118.2480,"lvl":7,"rarity":"common","iconKey":"ruins","region":"bos","game":"bos","source":"canon"},
{"id":"kansas_city_bos","name":"Kansas City","lat":39.0997,"lng":-94.5786,"lvl":10,"rarity":"rare","iconKey":"city","region":"bos","game":"bos","source":"canon"},
{"id":"kansas_city_sewers_bos","name":"Kansas City Sewers","lat":39.0990,"lng":-94.5790,"lvl":11,"rarity":"common","iconKey":"sewer","region":"bos","game":"bos","source":"canon"},
{"id":"kansas_city_mutant_den_bos","name":"Mutant Den (Kansas City)","lat":39.0980,"lng":-94.5800,"lvl":12,"rarity":"rare","iconKey":"danger","region":"bos","game":"bos","source":"canon"},
{"id":"phoenix_bos","name":"Phoenix","lat":33.4484,"lng":-112.0740,"lvl":15,"rarity":"rare","iconKey":"city","region":"bos","game":"bos","source":"canon"},
{"id":"phoenix_reactor_bos","name":"Phoenix Nuclear Plant","lat":33.4490,"lng":-112.0730,"lvl":18,"rarity":"epic","iconKey":"reactor","region":"bos","game":"bos","source":"canon"},
{"id":"phoenix_robot_factory_bos","name":"Phoenix Robot Factory","lat":33.4500,"lng":-112.0720,"lvl":20,"rarity":"epic","iconKey":"facility","region":"bos","game":"bos","source":"canon"},
{"id":"boulder_bos","name":"Boulder","lat":40.0140,"lng":-105.2700,"lvl":22,"rarity":"rare","iconKey":"city","region":"bos","game":"bos","source":"canon"},
{"id":"boulder_mutant_labs_bos","name":"Boulder Mutant Labs","lat":40.0150,"lng":-105.2710,"lvl":24,"rarity":"epic","iconKey":"facility","region":"bos","game":"bos","source":"canon"},
{"id":"carbon_bos","name":"Carbon","lat":39.6000,"lng":-110.8000,"lvl":26,"rarity":"rare","iconKey":"town","region":"bos","game":"bos","source":"canon"},
{"id":"carbon_mines_bos","name":"Carbon Mines","lat":39.6010,"lng":-110.8010,"lvl":27,"rarity":"common","iconKey":"mine","region":"bos","game":"bos","source":"canon"},
{"id":"carbon_mutant_pits_bos","name":"Carbon Mutant Pits","lat":39.6020,"lng":-110.8020,"lvl":28,"rarity":"rare","iconKey":"danger","region":"bos","game":"bos","source":"canon"},
{"id":"vault_tec_hq_bos","name":"Vault-Tec HQ","lat":34.0000,"lng":-118.2500,"lvl":30,"rarity":"epic","iconKey":"facility","region":"bos","game":"bos","source":"canon"},
{"id":"vault_tec_reactor_bos","name":"Vault-Tec Reactor Core","lat":34.0010,"lng":-118.2510,"lvl":32,"rarity":"legendary","iconKey":"reactor","region":"bos","game":"bos","source":"canon"},
{"id":"calculator_core_bos","name":"The Calculator Core","lat":34.0020,"lng":-118.2520,"lvl":40,"rarity":"legendary","iconKey":"facility","region":"bos","game":"bos","source":"canon"},
{"id":"calculator_chamber_bos","name":"Calculator Final Chamber","lat":34.0030,"lng":-118.2530,"lvl":45,"rarity":"legendary","iconKey":"danger","region":"bos","game":"bos","source":"canon"},

{"id":"nuclear_nevada_test_site","name":"Nevada Test Site","lat":37.1167,"lng":-116.0500,"lvl":50,"rarity":"legendary","iconKey":"reactor","region":"nuclear_sites","game":"real","source":"real"},
{"id":"nuclear_hanford_site","name":"Hanford Site","lat":46.5500,"lng":-119.5833,"lvl":50,"rarity":"legendary","iconKey":"reactor","region":"nuclear_sites","game":"real","source":"real"},
{"id":"nuclear_oak_ridge","name":"Oak Ridge National Lab","lat":35.9300,"lng":-84.3100,"lvl":45,"rarity":"epic","iconKey":"reactor","region":"nuclear_sites","game":"real","source":"real"},
{"id":"nuclear_savannah_river","name":"Savannah River Site","lat":33.2000,"lng":-81.7300,"lvl":45,"rarity":"epic","iconKey":"reactor","region":"nuclear_sites","game":"real","source":"real"},
{"id":"nuclear_three_mile_island","name":"Three Mile Island","lat":40.1530,"lng":-76.7250,"lvl":40,"rarity":"rare","iconKey":"reactor","region":"nuclear_sites","game":"real","source":"real"},
{"id":"nuclear_chernobyl","name":"Chernobyl NPP","lat":51.2760,"lng":30.2210,"lvl":60,"rarity":"legendary","iconKey":"reactor","region":"nuclear_sites","game":"real","source":"real"},
{"id":"nuclear_fukushima","name":"Fukushima Daiichi","lat":37.4210,"lng":141.0320,"lvl":60,"rarity":"legendary","iconKey":"reactor","region":"nuclear_sites","game":"real","source":"real"},
{"id":"nuclear_zaporizhzhia","name":"Zaporizhzhia NPP","lat":47.5100,"lng":34.5850,"lvl":55,"rarity":"epic","iconKey":"reactor","region":"nuclear_sites","game":"real","source":"real"},
{"id":"nuclear_palo_verde","name":"Palo Verde Nuclear Plant","lat":33.3890,"lng":-112.8650,"lvl":40,"rarity":"rare","iconKey":"reactor","region":"nuclear_sites","game":"real","source":"real"},
{"id":"nuclear_diablo_canyon","name":"Diablo Canyon Nuclear Plant","lat":35.2100,"lng":-120.8500,"lvl":40,"rarity":"rare","iconKey":"reactor","region":"nuclear_sites","game":"real","source":"real"},

{"id":"anchorage_outpost_fo3","name":"U.S. Army Anchorage Outpost","lat":61.2180,"lng":-149.9000,"lvl":20,"rarity":"rare","iconKey":"military","region":"fo3_anchorage","game":"fo3","source":"canon"},
{"id":"anchorage_hq_fo3","name":"U.S. Army Field HQ","lat":61.2190,"lng":-149.9010,"lvl":22,"rarity":"rare","iconKey":"military","region":"fo3_anchorage","game":"fo3","source":"canon"},
{"id":"anchorage_artillery_base_fo3","name":"Artillery Base","lat":61.2200,"lng":-149.9050,"lvl":24,"rarity":"epic","iconKey":"facility","region":"fo3_anchorage","game":"fo3","source":"canon"},
{"id":"anchorage_cliffs_fo3","name":"Frozen Cliffs","lat":61.2250,"lng":-149.9100,"lvl":26,"rarity":"rare","iconKey":"wilderness","region":"fo3_anchorage","game":"fo3","source":"canon"}

]
