[
  {
    "id": "vegas_humming_robot_fizzcode",
    "name": "The Humming One",
    "lat": 36.1159,
    "lng": -115.1734,
    "lvl": 1,
    "rarity": "legendary",
    "iconKey": "ruins",
    "region": "vegas_strip",
    "game": "fo_new",
    "source": "generated",
    "icon": "ruins"
  },
  {
    "id": "strip_gate_north_fnv",
    "name": "Strip North Gate",
    "lat": 36.1719,
    "lng": -115.1394,
    "lvl": 10,
    "rarity": "common",
    "iconKey": "city",
    "region": "strip",
    "game": "fnv",
    "source": "canon",
    "icon": "city"
  },
  {
    "id": "strip_gate_south_fnv",
    "name": "Strip South Gate",
    "lat": 36.1688,
    "lng": -115.1398,
    "lvl": 10,
    "rarity": "common",
    "iconKey": "city",
    "region": "strip",
    "game": "fnv",
    "source": "canon",
    "icon": "city"
  },
  {
    "id": "gomorrah_fnv",
    "name": "Gomorrah",
    "lat": 36.1706,
    "lng": -115.1417,
    "lvl": 12,
    "rarity": "rare",
    "iconKey": "casino",
    "region": "strip",
    "game": "fnv",
    "source": "canon",
    "icon": "casino"
  },
  {
    "id": "ultra_luxe_fnv",
    "name": "Ultra-Luxe",
    "lat": 36.1701,
    "lng": -115.139,
    "lvl": 12,
    "rarity": "rare",
    "iconKey": "casino",
    "region": "strip",
    "game": "fnv",
    "source": "canon",
    "icon": "casino"
  },
  {
    "id": "the_tops_fnv",
    "name": "The Tops Casino",
    "lat": 36.1704,
    "lng": -115.1405,
    "lvl": 12,
    "rarity": "rare",
    "iconKey": "casino",
    "region": "strip",
    "game": "fnv",
    "source": "canon",
    "icon": "casino"
  },
  {
    "id": "vault_21_hotel_fnv",
    "name": "Vault 21 Hotel",
    "lat": 36.1708,
    "lng": -115.1388,
    "lvl": 8,
    "rarity": "common",
    "iconKey": "vault",
    "region": "strip",
    "game": "fnv",
    "source": "canon",
    "icon": "vault"
  },
  {
    "id": "lucky_38_fnv",
    "name": "Lucky 38",
    "lat": 36.17,
    "lng": -115.1422,
    "lvl": 20,
    "rarity": "legendary",
    "iconKey": "casino",
    "region": "strip",
    "game": "fnv",
    "source": "canon",
    "icon": "casino"
  },
  {
    "id": "strip_monorail_fnv",
    "name": "Strip Monorail Station",
    "lat": 36.1694,
    "lng": -115.143,
    "lvl": 8,
    "rarity": "common",
    "iconKey": "station",
    "region": "strip",
    "game": "fnv",
    "source": "canon",
    "icon": "station"
  },
  {
    "id": "freeside_market_fnv",
    "name": "Freeside Market",
    "lat": 36.170719,
    "lng": -115.143929,
    "lvl": 5,
    "rarity": "common",
    "iconKey": "market",
    "region": "freeside",
    "game": "fnv",
    "source": "canon",
    "icon": "market"
  },
  {
    "id": "silver_rush_fnv",
    "name": "Silver Rush",
    "lat": 36.1498,
    "lng": -115.139,
    "lvl": 9,
    "rarity": "rare",
    "iconKey": "shop",
    "region": "freeside",
    "game": "fnv",
    "source": "canon",
    "icon": "shop"
  },
  {
    "id": "atomic_wrangler_fnv",
    "name": "Atomic Wrangler",
    "lat": 36.1499,
    "lng": -115.1383,
    "lvl": 8,
    "rarity": "rare",
    "iconKey": "casino",
    "region": "freeside",
    "game": "fnv",
    "source": "canon",
    "icon": "casino"
  },
  {
    "id": "old_mormon_fort_fnv",
    "name": "Old Mormon Fort",
    "lat": 36.1694,
    "lng": -115.1305,
    "lvl": 6,
    "rarity": "common",
    "iconKey": "fort",
    "region": "freeside",
    "game": "fnv",
    "source": "canon",
    "icon": "fort"
  },
  {
    "id": "bonnie_springs_fnv",
    "name": "Bonnie Springs Ranch",
    "lat": 36.06007,
    "lng": -115.45027,
    "lvl": 7,
    "rarity": "common",
    "iconKey": "town",
    "region": "outer_vegas",
    "game": "fnv",
    "source": "canon",
    "icon": "town"
  },
  {
    "id": "callville_bay_fnv",
    "name": "Callville Bay Marina",
    "lat": 36.144,
    "lng": -114.722,
    "lvl": 9,
    "rarity": "common",
    "iconKey": "town",
    "region": "outer_vegas",
    "game": "fnv",
    "source": "canon",
    "icon": "town"
  },
  {
    "id": "sloan_station_fnv",
    "name": "Sloan Station",
    "lat": 35.94361,
    "lng": -115.21722,
    "lvl": 5,
    "rarity": "common",
    "iconKey": "town",
    "region": "outer_vegas",
    "game": "fnv",
    "source": "canon",
    "icon": "town"
  },
  {
    "id": "jean_airport_fnv",
    "name": "Jean Airport",
    "lat": 35.7677,
    "lng": -115.3245,
    "lvl": 6,
    "rarity": "common",
    "iconKey": "airport",
    "region": "outer_vegas",
    "game": "fnv",
    "source": "canon",
    "icon": "airport"
  },
  {
    "id": "mccarran_airport_fnv",
    "name": "McCarran Airport",
    "lat": 36.0801,
    "lng": -115.1522,
    "lvl": 8,
    "rarity": "rare",
    "iconKey": "airport",
    "region": "outer_vegas",
    "game": "fnv",
    "source": "canon",
    "icon": "airport"
  },
  {
    "id": "nelson_ghost_town_fnv",
    "name": "Nelson Ghost Town",
    "lat": 35.4189,
    "lng": -114.7133,
    "lvl": 9,
    "rarity": "rare",
    "iconKey": "ruins",
    "region": "outer_vegas",
    "game": "fnv",
    "source": "canon",
    "icon": "ruins"
  },
  {
    "id": "rhyolite_ghost_town_fnv",
    "name": "Rhyolite Ghost Town",
    "lat": 36.9033,
    "lng": -116.8283,
    "lvl": 11,
    "rarity": "rare",
    "iconKey": "ruins",
    "region": "outer_vegas",
    "game": "fnv",
    "source": "canon",
    "icon": "ruins"
  },
  {
    "id": "whiskey_petes_fnv",
    "name": "Whiskey Pete's",
    "lat": 35.6167,
    "lng": -115.39,
    "lvl": 3,
    "rarity": "common",
    "iconKey": "casino",
    "region": "outer_vegas",
    "game": "fnv",
    "source": "canon",
    "icon": "casino"
  },
  {
    "id": "primm_valley_resort_fnv",
    "name": "Primm Valley Resort",
    "lat": 35.616,
    "lng": -115.39,
    "lvl": 3,
    "rarity": "common",
    "iconKey": "casino",
    "region": "outer_vegas",
    "game": "fnv",
    "source": "canon",
    "icon": "casino"
  },
  {
    "id": "westgate_hotel_fnv",
    "name": "Westgate Hotel",
    "lat": 36.1311,
    "lng": -115.1564,
    "lvl": 10,
    "rarity": "epic",
    "iconKey": "city",
    "region": "outer_vegas",
    "game": "fnv",
    "source": "canon",
    "icon": "city"
  },
  {
    "id": "coca_cola_factory_fnv",
    "name": "Coca Cola Factory",
    "lat": 36.1025,
    "lng": -115.1738,
    "lvl": 8,
    "rarity": "rare",
    "iconKey": "factory",
    "region": "outer_vegas",
    "game": "fnv",
    "source": "canon",
    "icon": "factory"
  },
  {
    "id": "goodsprings_saloon_fnv",
    "name": "Goodsprings Saloon",
    "lat": 35.8324,
    "lng": -115.432,
    "lvl": 1,
    "rarity": "common",
    "iconKey": "town",
    "region": "mojave_towns",
    "game": "fnv",
    "source": "canon",
    "icon": "town"
  },
  {
    "id": "primm_rollercoaster_fnv",
    "name": "Primm Rollercoaster",
    "lat": 35.6145,
    "lng": -115.3845,
    "lvl": 2,
    "rarity": "common",
    "iconKey": "town",
    "region": "mojave_towns",
    "game": "fnv",
    "source": "canon",
    "icon": "town"
  },
  {
    "id": "novac_motel_fnv",
    "name": "Novac Motel",
    "lat": 35.0525,
    "lng": -114.8247,
    "lvl": 5,
    "rarity": "rare",
    "iconKey": "town",
    "region": "mojave_towns",
    "game": "fnv",
    "source": "canon",
    "icon": "town"
  },
  {
    "id": "nipton_trading_post_fnv",
    "name": "Nipton Trading Post",
    "lat": 35.46667,
    "lng": -115.27222,
    "lvl": 4,
    "rarity": "common",
    "iconKey": "town",
    "region": "mojave_towns",
    "game": "fnv",
    "source": "canon",
    "icon": "town"
  },
  {
    "id": "boulder_city_hotel_fnv",
    "name": "Boulder City Hotel",
    "lat": 35.9775,
    "lng": -114.83639,
    "lvl": 6,
    "rarity": "rare",
    "iconKey": "town",
    "region": "mojave_towns",
    "game": "fnv",
    "source": "canon",
    "icon": "town"
  },
  {
    "id": "jacobstown_fnv",
    "name": "Jacobstown",
    "lat": 36.3,
    "lng": -115.65,
    "lvl": 22,
    "rarity": "rare",
    "iconKey": "town",
    "region": "mojave_towns",
    "game": "fnv",
    "source": "canon",
    "icon": "town"
  },
  {
    "id": "searchlight_church_fnv",
    "name": "Searchlight Church",
    "lat": 35.46434,
    "lng": -114.91844,
    "lvl": 10,
    "rarity": "rare",
    "iconKey": "town",
    "region": "mojave_towns",
    "game": "fnv",
    "source": "canon",
    "icon": "town"
  },
  {
    "id": "cottonwood_cove_fnv",
    "name": "Cottonwood Cove",
    "lat": 35.999,
    "lng": -114.5,
    "lvl": 14,
    "rarity": "rare",
    "iconKey": "town",
    "region": "mojave_towns",
    "game": "fnv",
    "source": "canon",
    "icon": "town"
  },
  {
    "id": "helios_one_fnv",
    "name": "Helios One",
    "lat": 35.758,
    "lng": -114.953,
    "lvl": 13,
    "rarity": "epic",
    "iconKey": "facility",
    "region": "fnv_minor",
    "game": "fnv",
    "source": "canon",
    "icon": "facility"
  },
  {
    "id": "repconn_test_site_fnv",
    "name": "REPCONN Test Site",
    "lat": 36.036,
    "lng": -115.088,
    "lvl": 12,
    "rarity": "rare",
    "iconKey": "facility",
    "region": "fnv_minor",
    "game": "fnv",
    "source": "canon",
    "icon": "facility"
  },
  {
    "id": "repconn_headquarters_fnv",
    "name": "REPCONN Headquarters",
    "lat": 36.05,
    "lng": -115.1,
    "lvl": 13,
    "rarity": "rare",
    "iconKey": "facility",
    "region": "fnv_minor",
    "game": "fnv",
    "source": "canon",
    "icon": "facility"
  },
  {
    "id": "188_trading_post_fnv",
    "name": "188 Trading Post",
    "lat": 35.95,
    "lng": -115.2,
    "lvl": 8,
    "rarity": "common",
    "iconKey": "shop",
    "region": "fnv_minor",
    "game": "fnv",
    "source": "canon",
    "icon": "shop"
  },
  {
    "id": "griffin_caravan_fnv",
    "name": "Griffin Caravan",
    "lat": 35.9,
    "lng": -115.25,
    "lvl": 7,
    "rarity": "common",
    "iconKey": "caravan",
    "region": "fnv_minor",
    "game": "fnv",
    "source": "canon",
    "icon": "caravan"
  },
  {
    "id": "nevada_highway_patrol_fnv",
    "name": "Nevada Highway Patrol",
    "lat": 35.95,
    "lng": -115.15,
    "lvl": 6,
    "rarity": "common",
    "iconKey": "ruins",
    "region": "fnv_minor",
    "game": "fnv",
    "source": "canon",
    "icon": "ruins"
  },
  {
    "id": "sarsaparilla_hq_fnv",
    "name": "Sunset Sarsaparilla HQ",
    "lat": 36,
    "lng": -115.2,
    "lvl": 10,
    "rarity": "rare",
    "iconKey": "factory",
    "region": "fnv_minor",
    "game": "fnv",
    "source": "canon",
    "icon": "factory"
  },
  {
    "id": "helios_one_entrance_fnv",
    "name": "HELIOS One Entrance",
    "lat": 35.76,
    "lng": -114.95,
    "lvl": 13,
    "rarity": "rare",
    "iconKey": "facility",
    "region": "fnv_minor",
    "game": "fnv",
    "source": "canon",
    "icon": "facility"
  },
  {
    "id": "camp_searchlight_fnv",
    "name": "Camp Searchlight",
    "lat": 35.46,
    "lng": -114.92,
    "lvl": 11,
    "rarity": "rare",
    "iconKey": "ruins",
    "region": "fnv_minor",
    "game": "fnv",
    "source": "canon",
    "icon": "ruins"
  },
  {
    "id": "vicki_vance_museum_fnv",
    "name": "Vikki & Vance Museum",
    "lat": 35.615,
    "lng": -115.385,
    "lvl": 4,
    "rarity": "common",
    "iconKey": "museum",
    "region": "fnv_minor",
    "game": "fnv",
    "source": "canon",
    "icon": "museum"
  },
  {
    "id": "primm_schoolhouse_fnv",
    "name": "Primm Schoolhouse",
    "lat": 35.615,
    "lng": -115.385,
    "lvl": 3,
    "rarity": "common",
    "iconKey": "ruins",
    "region": "fnv_minor",
    "game": "fnv",
    "source": "canon",
    "icon": "ruins"
  },
  {
    "id": "nipton_hall_fnv",
    "name": "Nipton Hall",
    "lat": 35.4667,
    "lng": -115.2722,
    "lvl": 5,
    "rarity": "common",
    "iconKey": "ruins",
    "region": "fnv_minor",
    "game": "fnv",
    "source": "canon",
    "icon": "ruins"
  },
  {
    "id": "boulder_city_ruins_fnv",
    "name": "Boulder City Ruins",
    "lat": 35.9775,
    "lng": -114.8364,
    "lvl": 7,
    "rarity": "common",
    "iconKey": "ruins",
    "region": "fnv_minor",
    "game": "fnv",
    "source": "canon",
    "icon": "ruins"
  },
  {
    "id": "ncr_capital_fnv",
    "name": "NCR Capital (Vegas HQ)",
    "lat": 36.1699,
    "lng": -115.1398,
    "lvl": 30,
    "rarity": "epic",
    "iconKey": "faction",
    "region": "fnv_factions",
    "game": "fnv",
    "source": "canon",
    "icon": "faction"
  },
  {
    "id": "ncr_base_fnv",
    "name": "NCR Base",
    "lat": 36.1699,
    "lng": -115.1398,
    "lvl": 15,
    "rarity": "common",
    "iconKey": "faction",
    "region": "fnv_factions",
    "game": "fnv",
    "source": "canon",
    "icon": "faction"
  },
  {
    "id": "brotherhood_bunker_fnv",
    "name": "Brotherhood of Steel Bunker",
    "lat": 34.0522,
    "lng": -118.2437,
    "lvl": 30,
    "rarity": "rare",
    "iconKey": "bunker",
    "region": "fnv_factions",
    "game": "fnv",
    "source": "canon",
    "icon": "bunker"
  },
  {
    "id": "followers_outpost_fnv",
    "name": "Followers Outpost",
    "lat": 36.1699,
    "lng": -115.1398,
    "lvl": 12,
    "rarity": "common",
    "iconKey": "faction",
    "region": "fnv_factions",
    "game": "fnv",
    "source": "canon",
    "icon": "faction"
  },
  {
    "id": "gun_runners_fnv",
    "name": "Gun Runners",
    "lat": 36.1699,
    "lng": -115.1398,
    "lvl": 20,
    "rarity": "rare",
    "iconKey": "shop",
    "region": "fnv_factions",
    "game": "fnv",
    "source": "canon",
    "icon": "shop"
  },
  {
    "id": "free_economic_zone_fnv",
    "name": "Free Economic Zone",
    "lat": 36.1699,
    "lng": -115.1398,
    "lvl": 18,
    "rarity": "common",
    "iconKey": "faction",
    "region": "fnv_factions",
    "game": "fnv",
    "source": "canon",
    "icon": "faction"
  },
  {
    "id": "new_california_republic_fnv",
    "name": "New California Republic Embassy",
    "lat": 36.1699,
    "lng": -115.1398,
    "lvl": 25,
    "rarity": "rare",
    "iconKey": "faction",
    "region": "fnv_factions",
    "game": "fnv",
    "source": "canon",
    "icon": "faction"
  },
  {
    "id": "cottonwood_cove_legion_fnv",
    "name": "Cottonwood Cove (Legion)",
    "lat": 35.999,
    "lng": -114.5,
    "lvl": 14,
    "rarity": "rare",
    "iconKey": "faction",
    "region": "fnv_factions",
    "game": "fnv",
    "source": "canon",
    "icon": "faction"
  },
  {
    "id": "black_mountain_fnv",
    "name": "Black Mountain",
    "lat": 35.931,
    "lng": -115.044,
    "lvl": 20,
    "rarity": "epic",
    "iconKey": "mountain",
    "region": "fnv_wild",
    "game": "fnv",
    "source": "canon",
    "icon": "mountain"
  },
  {
    "id": "dead_wind_cavern_fnv",
    "name": "Dead Wind Cavern",
    "lat": 35.8,
    "lng": -115.4,
    "lvl": 40,
    "rarity": "legendary",
    "iconKey": "cave",
    "region": "fnv_wild",
    "game": "fnv",
    "source": "canon",
    "icon": "cave"
  },
  {
    "id": "deathclaw_promontory_fnv",
    "name": "Deathclaw Promontory",
    "lat": 36.1,
    "lng": -114.9,
    "lvl": 45,
    "rarity": "legendary",
    "iconKey": "danger",
    "region": "fnv_wild",
    "game": "fnv",
    "source": "canon",
    "icon": "danger"
  },
  {
    "id": "quarry_junction_fnv",
    "name": "Quarry Junction",
    "lat": 35.92,
    "lng": -115.18,
    "lvl": 35,
    "rarity": "epic",
    "iconKey": "danger",
    "region": "fnv_wild",
    "game": "fnv",
    "source": "canon",
    "icon": "danger"
  },
  {
    "id": "mesquite_mountains_fnv",
    "name": "Mesquite Mountains",
    "lat": 35.85,
    "lng": -115.95,
    "lvl": 17,
    "rarity": "rare",
    "iconKey": "mountain",
    "region": "fnv_wild",
    "game": "fnv",
    "source": "canon",
    "icon": "mountain"
  },
  {
    "id": "devils_gullet_fnv",
    "name": "Devil's Gullet",
    "lat": 35.7,
    "lng": -115.3,
    "lvl": 23,
    "rarity": "rare",
    "iconKey": "cave",
    "region": "fnv_wild",
    "game": "fnv",
    "source": "canon",
    "icon": "cave"
  },
  {
    "id": "cazador_hive_fnv",
    "name": "Cazador Hive",
    "lat": 36,
    "lng": -115,
    "lvl": 30,
    "rarity": "rare",
    "iconKey": "danger",
    "region": "fnv_wild",
    "game": "fnv",
    "source": "canon",
    "icon": "danger"
  },
  {
    "id": "sierra_madre_villa_fnv",
    "name": "Sierra Madre Villa",
    "lat": 36.05,
    "lng": -115.1,
    "lvl": 20,
    "rarity": "epic",
    "iconKey": "ruins",
    "region": "fnv_dm",
    "game": "fnv",
    "source": "canon",
    "icon": "ruins"
  },
  {
    "id": "sierra_madre_casino_fnv",
    "name": "Sierra Madre Casino",
    "lat": 36.0505,
    "lng": -115.0995,
    "lvl": 25,
    "rarity": "legendary",
    "iconKey": "casino",
    "region": "fnv_dm",
    "game": "fnv",
    "source": "canon",
    "icon": "casino"
  },
  {
    "id": "sierra_madre_lobby_fnv",
    "name": "Sierra Madre Casino Lobby",
    "lat": 36.0506,
    "lng": -115.0994,
    "lvl": 25,
    "rarity": "epic",
    "iconKey": "casino",
    "region": "fnv_dm",
    "game": "fnv",
    "source": "canon",
    "icon": "casino"
  },
  {
    "id": "sierra_madre_suites_fnv",
    "name": "Sierra Madre Suites",
    "lat": 36.0507,
    "lng": -115.0993,
    "lvl": 24,
    "rarity": "rare",
    "iconKey": "hotel",
    "region": "fnv_dm",
    "game": "fnv",
    "source": "canon",
    "icon": "hotel"
  },
  {
    "id": "villa_residential_fnv",
    "name": "Villa Residential District",
    "lat": 36.0495,
    "lng": -115.1005,
    "lvl": 18,
    "rarity": "common",
    "iconKey": "ruins",
    "region": "fnv_dm",
    "game": "fnv",
    "source": "canon",
    "icon": "ruins"
  },
  {
    "id": "villa_police_station_fnv",
    "name": "Villa Police Station",
    "lat": 36.049,
    "lng": -115.101,
    "lvl": 19,
    "rarity": "rare",
    "iconKey": "police",
    "region": "fnv_dm",
    "game": "fnv",
    "source": "canon",
    "icon": "police"
  },
  {
    "id": "villa_medical_fnv",
    "name": "Villa Medical District",
    "lat": 36.0488,
    "lng": -115.1012,
    "lvl": 20,
    "rarity": "rare",
    "iconKey": "hospital",
    "region": "fnv_dm",
    "game": "fnv",
    "source": "canon",
    "icon": "hospital"
  },
  {
    "id": "villa_fountain_fnv",
    "name": "Villa Fountain",
    "lat": 36.0498,
    "lng": -115.1002,
    "lvl": 18,
    "rarity": "common",
    "iconKey": "poi",
    "region": "fnv_dm",
    "game": "fnv",
    "source": "canon",
    "icon": "poi"
  },
  {
    "id": "switching_station_fnv",
    "name": "Sierra Madre Switching Station",
    "lat": 36.0475,
    "lng": -115.102,
    "lvl": 22,
    "rarity": "rare",
    "iconKey": "facility",
    "region": "fnv_dm",
    "game": "fnv",
    "source": "canon",
    "icon": "facility"
  },
  {
    "id": "cloud_zone_north_fnv",
    "name": "Cloud Zone (North)",
    "lat": 36.051,
    "lng": -115.099,
    "lvl": 30,
    "rarity": "epic",
    "iconKey": "danger",
    "region": "fnv_dm",
    "game": "fnv",
    "source": "canon",
    "icon": "danger"
  },
  {
    "id": "cloud_zone_south_fnv",
    "name": "Cloud Zone (South)",
    "lat": 36.048,
    "lng": -115.1015,
    "lvl": 30,
    "rarity": "epic",
    "iconKey": "danger",
    "region": "fnv_dm",
    "game": "fnv",
    "source": "canon",
    "icon": "danger"
  },
  {
    "id": "villa_toxic_cloud_fnv",
    "name": "Villa Toxic Cloud",
    "lat": 36.049,
    "lng": -115.1008,
    "lvl": 28,
    "rarity": "rare",
    "iconKey": "danger",
    "region": "fnv_dm",
    "game": "fnv",
    "source": "canon",
    "icon": "danger"
  },
  {
    "id": "zion_canyon_fnv",
    "name": "Zion Canyon",
    "lat": 37.3,
    "lng": -113.03,
    "lvl": 15,
    "rarity": "common",
    "iconKey": "wilderness",
    "region": "fnv_hh",
    "game": "fnv",
    "source": "canon",
    "icon": "wilderness"
  },
  {
    "id": "dead_horses_camp_fnv",
    "name": "Dead Horses Camp",
    "lat": 37.305,
    "lng": -113.025,
    "lvl": 18,
    "rarity": "rare",
    "iconKey": "camp",
    "region": "fnv_hh",
    "game": "fnv",
    "source": "canon",
    "icon": "camp"
  },
  {
    "id": "sorrows_camp_fnv",
    "name": "Sorrows Camp",
    "lat": 37.31,
    "lng": -113.02,
    "lvl": 18,
    "rarity": "rare",
    "iconKey": "camp",
    "region": "fnv_hh",
    "game": "fnv",
    "source": "canon",
    "icon": "camp"
  },
  {
    "id": "angel_cave_fnv",
    "name": "Angel Cave",
    "lat": 37.315,
    "lng": -113.015,
    "lvl": 20,
    "rarity": "rare",
    "iconKey": "cave",
    "region": "fnv_hh",
    "game": "fnv",
    "source": "canon",
    "icon": "cave"
  },
  {
    "id": "three_marys_fnv",
    "name": "Three Marys",
    "lat": 37.295,
    "lng": -113.04,
    "lvl": 16,
    "rarity": "common",
    "iconKey": "poi",
    "region": "fnv_hh",
    "game": "fnv",
    "source": "canon",
    "icon": "poi"
  },
  {
    "id": "zion_ranger_station_fnv",
    "name": "Zion Ranger Station",
    "lat": 37.298,
    "lng": -113.05,
    "lvl": 14,
    "rarity": "common",
    "iconKey": "station",
    "region": "fnv_hh",
    "game": "fnv",
    "source": "canon",
    "icon": "station"
  },
  {
    "id": "white_legs_encampment_fnv",
    "name": "White Legs Encampment",
    "lat": 37.285,
    "lng": -113.06,
    "lvl": 22,
    "rarity": "epic",
    "iconKey": "camp",
    "region": "fnv_hh",
    "game": "fnv",
    "source": "canon",
    "icon": "camp"
  },
  {
    "id": "fallen_trees_pass_fnv",
    "name": "Fallen Trees Pass",
    "lat": 37.292,
    "lng": -113.045,
    "lvl": 17,
    "rarity": "common",
    "iconKey": "wilderness",
    "region": "fnv_hh",
    "game": "fnv",
    "source": "canon",
    "icon": "wilderness"
  },
  {
    "id": "big_mt_crater_fnv",
    "name": "Big MT Crater",
    "lat": 36.9,
    "lng": -116.05,
    "lvl": 30,
    "rarity": "epic",
    "iconKey": "wasteland",
    "region": "fnv_owb",
    "game": "fnv",
    "source": "canon",
    "icon": "wasteland"
  },
  {
    "id": "think_tank_fnv",
    "name": "The Think Tank",
    "lat": 36.901,
    "lng": -116.049,
    "lvl": 35,
    "rarity": "legendary",
    "iconKey": "facility",
    "region": "fnv_owb",
    "game": "fnv",
    "source": "canon",
    "icon": "facility"
  },
  {
    "id": "x2_transmitter_fnv",
    "name": "X-2 Transmitter Antenna Array",
    "lat": 36.902,
    "lng": -116.048,
    "lvl": 28,
    "rarity": "rare",
    "iconKey": "facility",
    "region": "fnv_owb",
    "game": "fnv",
    "source": "canon",
    "icon": "facility"
  },
  {
    "id": "x8_research_center_fnv",
    "name": "X-8 Research Center",
    "lat": 36.903,
    "lng": -116.047,
    "lvl": 32,
    "rarity": "epic",
    "iconKey": "facility",
    "region": "fnv_owb",
    "game": "fnv",
    "source": "canon",
    "icon": "facility"
  },
  {
    "id": "x13_research_facility_fnv",
    "name": "X-13 Research Facility",
    "lat": 36.904,
    "lng": -116.046,
    "lvl": 34,
    "rarity": "epic",
    "iconKey": "facility",
    "region": "fnv_owb",
    "game": "fnv",
    "source": "canon",
    "icon": "facility"
  },
  {
    "id": "x12_research_center_fnv",
    "name": "X-12 Research Center",
    "lat": 36.905,
    "lng": -116.045,
    "lvl": 30,
    "rarity": "rare",
    "iconKey": "facility",
    "region": "fnv_owb",
    "game": "fnv",
    "source": "canon",
    "icon": "facility"
  },
  {
    "id": "x17_meteorology_fnv",
    "name": "X-17 Meteorology Station",
    "lat": 36.906,
    "lng": -116.044,
    "lvl": 26,
    "rarity": "common",
    "iconKey": "facility",
    "region": "fnv_owb",
    "game": "fnv",
    "source": "canon",
    "icon": "facility"
  },
  {
    "id": "big_mt_central_facility_fnv",
    "name": "Big MT Central Facility",
    "lat": 36.907,
    "lng": -116.043,
    "lvl": 33,
    "rarity": "rare",
    "iconKey": "facility",
    "region": "fnv_owb",
    "game": "fnv",
    "source": "canon",
    "icon": "facility"
  },
  {
    "id": "crater_lake_fnv",
    "name": "Crater Lake",
    "lat": 36.908,
    "lng": -116.042,
    "lvl": 22,
    "rarity": "common",
    "iconKey": "wasteland",
    "region": "fnv_owb",
    "game": "fnv",
    "source": "canon",
    "icon": "wasteland"
  },
  {
    "id": "big_mt_sonic_emitters_fnv",
    "name": "Sonic Emitter Testing Range",
    "lat": 36.909,
    "lng": -116.041,
    "lvl": 27,
    "rarity": "rare",
    "iconKey": "facility",
    "region": "fnv_owb",
    "game": "fnv",
    "source": "canon",
    "icon": "facility"
  },
  {
    "id": "the_divide_fnv",
    "name": "The Divide",
    "lat": 36.4,
    "lng": -116.4,
    "lvl": 35,
    "rarity": "epic",
    "iconKey": "wasteland",
    "region": "fnv_lr",
    "game": "fnv",
    "source": "canon",
    "icon": "wasteland"
  },
  {
    "id": "hopeville_silo_fnv",
    "name": "Hopeville Missile Silo",
    "lat": 36.405,
    "lng": -116.395,
    "lvl": 40,
    "rarity": "legendary",
    "iconKey": "facility",
    "region": "fnv_lr",
    "game": "fnv",
    "source": "canon",
    "icon": "facility"
  },
  {
    "id": "hopeville_ruins_fnv",
    "name": "Hopeville Ruins",
    "lat": 36.403,
    "lng": -116.398,
    "lvl": 32,
    "rarity": "rare",
    "iconKey": "ruins",
    "region": "fnv_lr",
    "game": "fnv",
    "source": "canon",
    "icon": "ruins"
  },
  {
    "id": "ashton_missile_silo_fnv",
    "name": "Ashton Missile Silo",
    "lat": 36.41,
    "lng": -116.39,
    "lvl": 42,
    "rarity": "legendary",
    "iconKey": "facility",
    "region": "fnv_lr",
    "game": "fnv",
    "source": "canon",
    "icon": "facility"
  },
  {
    "id": "ashton_blast_zone_fnv",
    "name": "Ashton Blast Zone",
    "lat": 36.411,
    "lng": -116.389,
    "lvl": 38,
    "rarity": "epic",
    "iconKey": "danger",
    "region": "fnv_lr",
    "game": "fnv",
    "source": "canon",
    "icon": "danger"
  },
  {
    "id": "highway_station_fnv",
    "name": "Highway Station",
    "lat": 36.395,
    "lng": -116.405,
    "lvl": 28,
    "rarity": "common",
    "iconKey": "station",
    "region": "fnv_lr",
    "game": "fnv",
    "source": "canon",
    "icon": "station"
  },
  {
    "id": "canyon_wreckage_fnv",
    "name": "Canyon Wreckage",
    "lat": 36.392,
    "lng": -116.41,
    "lvl": 25,
    "rarity": "common",
    "iconKey": "ruins",
    "region": "fnv_lr",
    "game": "fnv",
    "source": "canon",
    "icon": "ruins"
  },
  {
    "id": "ulysses_temple_fnv",
    "name": "Ulysses' Temple",
    "lat": 36.415,
    "lng": -116.385,
    "lvl": 45,
    "rarity": "legendary",
    "iconKey": "facility",
    "region": "fnv_lr",
    "game": "fnv",
    "source": "canon",
    "icon": "facility"
  },
  {
    "id": "divide_municipal_building_fnv",
    "name": "Divide Municipal Building",
    "lat": 36.397,
    "lng": -116.402,
    "lvl": 30,
    "rarity": "rare",
    "iconKey": "ruins",
    "region": "fnv_lr",
    "game": "fnv",
    "source": "canon",
    "icon": "ruins"
  },
  {
    "id": "collapsed_overpass_fnv",
    "name": "Collapsed Overpass",
    "lat": 36.399,
    "lng": -116.407,
    "lvl": 27,
    "rarity": "common",
    "iconKey": "ruins",
    "region": "fnv_lr",
    "game": "fnv",
    "source": "canon",
    "icon": "ruins"
  },
  {
    "id": "adams_afb_reactor_fo3",
    "name": "Adams AFB Reactor",
    "lat": 38.8,
    "lng": -76.9,
    "lvl": 30,
    "rarity": "epic",
    "iconKey": "reactor",
    "region": "fo3",
    "game": "fo3",
    "source": "canon",
    "icon": "reactor"
  },
  {
    "id": "bethesda_reactor_fo3",
    "name": "Bethesda Ruins Reactor",
    "lat": 39.03,
    "lng": -77.1,
    "lvl": 20,
    "rarity": "rare",
    "iconKey": "reactor",
    "region": "fo3",
    "game": "fo3",
    "source": "canon",
    "icon": "reactor"
  },
  {
    "id": "megaton_fo3",
    "name": "Megaton",
    "lat": 38.91,
    "lng": -77.02,
    "lvl": 8,
    "rarity": "rare",
    "iconKey": "town",
    "region": "fo3",
    "game": "fo3",
    "source": "canon",
    "icon": "town"
  },
  {
    "id": "rivet_city_fo3",
    "name": "Rivet City",
    "lat": 38.8719,
    "lng": -77,
    "lvl": 12,
    "rarity": "epic",
    "iconKey": "city",
    "region": "fo3",
    "game": "fo3",
    "source": "canon",
    "icon": "city"
  },
  {
    "id": "tenpenny_tower_fo3",
    "name": "Tenpenny Tower",
    "lat": 38.95,
    "lng": -77.04,
    "lvl": 14,
    "rarity": "rare",
    "iconKey": "tower",
    "region": "fo3",
    "game": "fo3",
    "source": "canon",
    "icon": "tower"
  },
  {
    "id": "little_lamplight_fo3",
    "name": "Little Lamplight",
    "lat": 39.05,
    "lng": -77.3,
    "lvl": 10,
    "rarity": "common",
    "iconKey": "town",
    "region": "fo3",
    "game": "fo3",
    "source": "canon",
    "icon": "town"
  },
  {
    "id": "big_town_fo3",
    "name": "Big Town",
    "lat": 39.05,
    "lng": -77.2,
    "lvl": 8,
    "rarity": "common",
    "iconKey": "town",
    "region": "fo3",
    "game": "fo3",
    "source": "canon",
    "icon": "town"
  },
  {
    "id": "canterbury_commons_fo3",
    "name": "Canterbury Commons",
    "lat": 39.2,
    "lng": -77.25,
    "lvl": 12,
    "rarity": "common",
    "iconKey": "town",
    "region": "fo3",
    "game": "fo3",
    "source": "canon",
    "icon": "town"
  },
  {
    "id": "andale_fo3",
    "name": "Andale",
    "lat": 38.85,
    "lng": -77.15,
    "lvl": 10,
    "rarity": "common",
    "iconKey": "town",
    "region": "fo3",
    "game": "fo3",
    "source": "canon",
    "icon": "town"
  },
  {
    "id": "arefu_fo3",
    "name": "Arefu",
    "lat": 39.15,
    "lng": -77.35,
    "lvl": 9,
    "rarity": "common",
    "iconKey": "town",
    "region": "fo3",
    "game": "fo3",
    "source": "canon",
    "icon": "town"
  },
  {
    "id": "grayditch_fo3",
    "name": "Grayditch",
    "lat": 38.88,
    "lng": -76.98,
    "lvl": 6,
    "rarity": "common",
    "iconKey": "town",
    "region": "fo3",
    "game": "fo3",
    "source": "canon",
    "icon": "town"
  },
  {
    "id": "girder_shade_fo3",
    "name": "GirderShade",
    "lat": 39,
    "lng": -77.28,
    "lvl": 10,
    "rarity": "rare",
    "iconKey": "town",
    "region": "fo3",
    "game": "fo3",
    "source": "canon",
    "icon": "town"
  },
  {
    "id": "vault_101_fo3",
    "name": "Vault 101",
    "lat": 38.99,
    "lng": -77.02,
    "lvl": 5,
    "rarity": "common",
    "iconKey": "vault",
    "region": "fo3",
    "game": "fo3",
    "source": "canon",
    "icon": "vault"
  },
  {
    "id": "vault_106_fo3",
    "name": "Vault 106",
    "lat": 39,
    "lng": -77.15,
    "lvl": 18,
    "rarity": "rare",
    "iconKey": "vault",
    "region": "fo3",
    "game": "fo3",
    "source": "canon",
    "icon": "vault"
  },
  {
    "id": "vault_108_fo3",
    "name": "Vault 108",
    "lat": 38.95,
    "lng": -77.2,
    "lvl": 20,
    "rarity": "rare",
    "iconKey": "vault",
    "region": "fo3",
    "game": "fo3",
    "source": "canon",
    "icon": "vault"
  },
  {
    "id": "vault_92_fo3",
    "name": "Vault 92",
    "lat": 39.15,
    "lng": -77.05,
    "lvl": 18,
    "rarity": "rare",
    "iconKey": "vault",
    "region": "fo3",
    "game": "fo3",
    "source": "canon",
    "icon": "vault"
  },
  {
    "id": "vault_87_fo3",
    "name": "Vault 87",
    "lat": 39.07,
    "lng": -77.28,
    "lvl": 22,
    "rarity": "epic",
    "iconKey": "vault",
    "region": "fo3",
    "game": "fo3",
    "source": "canon",
    "icon": "vault"
  },
  {
    "id": "vault_112_fo3",
    "name": "Vault 112",
    "lat": 39,
    "lng": -77.12,
    "lvl": 16,
    "rarity": "rare",
    "iconKey": "vault",
    "region": "fo3",
    "game": "fo3",
    "source": "canon",
    "icon": "vault"
  },
  {
    "id": "jefferson_memorial_fo3",
    "name": "Jefferson Memorial",
    "lat": 38.8814,
    "lng": -77.0365,
    "lvl": 20,
    "rarity": "epic",
    "iconKey": "facility",
    "region": "fo3",
    "game": "fo3",
    "source": "canon",
    "icon": "facility"
  },
  {
    "id": "galaxy_news_radio_fo3",
    "name": "Galaxy News Radio",
    "lat": 38.9105,
    "lng": -77.045,
    "lvl": 15,
    "rarity": "rare",
    "iconKey": "radio",
    "region": "fo3",
    "game": "fo3",
    "source": "canon",
    "icon": "radio"
  },
  {
    "id": "super_duper_mart_fo3",
    "name": "Super-Duper Mart",
    "lat": 38.9,
    "lng": -77.03,
    "lvl": 6,
    "rarity": "common",
    "iconKey": "shop",
    "region": "fo3",
    "game": "fo3",
    "source": "canon",
    "icon": "shop"
  },
  {
    "id": "national_guard_depot_fo3",
    "name": "National Guard Depot",
    "lat": 38.95,
    "lng": -77.01,
    "lvl": 22,
    "rarity": "epic",
    "iconKey": "facility",
    "region": "fo3",
    "game": "fo3",
    "source": "canon",
    "icon": "facility"
  },
  {
    "id": "robco_facility_fo3",
    "name": "RobCo Facility",
    "lat": 38.875,
    "lng": -77.06,
    "lvl": 14,
    "rarity": "rare",
    "iconKey": "factory",
    "region": "fo3",
    "game": "fo3",
    "source": "canon",
    "icon": "factory"
  },
  {
    "id": "bethesda_ruins_fo3",
    "name": "Bethesda Ruins",
    "lat": 39.03,
    "lng": -77.1,
    "lvl": 14,
    "rarity": "common",
    "iconKey": "ruins",
    "region": "fo3",
    "game": "fo3",
    "source": "canon",
    "icon": "ruins"
  },
  {
    "id": "bethesda_offices_fo3",
    "name": "Bethesda Offices",
    "lat": 39.031,
    "lng": -77.101,
    "lvl": 15,
    "rarity": "common",
    "iconKey": "ruins",
    "region": "fo3",
    "game": "fo3",
    "source": "canon",
    "icon": "ruins"
  },
  {
    "id": "red_racer_factory_fo3",
    "name": "Red Racer Factory",
    "lat": 38.96,
    "lng": -77.05,
    "lvl": 16,
    "rarity": "rare",
    "iconKey": "factory",
    "region": "fo3",
    "game": "fo3",
    "source": "canon",
    "icon": "factory"
  },
  {
    "id": "nuka_cola_plant_fo3",
    "name": "Nuka-Cola Plant",
    "lat": 38.89,
    "lng": -76.99,
    "lvl": 15,
    "rarity": "rare",
    "iconKey": "factory",
    "region": "fo3",
    "game": "fo3",
    "source": "canon",
    "icon": "factory"
  },
  {
    "id": "mason_district_fo3",
    "name": "Mason District",
    "lat": 38.88,
    "lng": -77,
    "lvl": 17,
    "rarity": "common",
    "iconKey": "ruins",
    "region": "fo3",
    "game": "fo3",
    "source": "canon",
    "icon": "ruins"
  },
  {
    "id": "arlington_cemetery_fo3",
    "name": "Arlington Cemetery",
    "lat": 38.88,
    "lng": -77.07,
    "lvl": 14,
    "rarity": "rare",
    "iconKey": "ruins",
    "region": "fo3",
    "game": "fo3",
    "source": "canon",
    "icon": "ruins"
  },
  {
    "id": "arlington_library_fo3",
    "name": "Arlington Library",
    "lat": 38.881,
    "lng": -77.072,
    "lvl": 16,
    "rarity": "rare",
    "iconKey": "ruins",
    "region": "fo3",
    "game": "fo3",
    "source": "canon",
    "icon": "ruins"
  },
  {
    "id": "museum_of_history_fo3",
    "name": "Museum of History",
    "lat": 38.891,
    "lng": -77.032,
    "lvl": 14,
    "rarity": "common",
    "iconKey": "museum",
    "region": "fo3",
    "game": "fo3",
    "source": "canon",
    "icon": "museum"
  },
  {
    "id": "national_archives_fo3",
    "name": "National Archives",
    "lat": 38.892,
    "lng": -77.042,
    "lvl": 18,
    "rarity": "rare",
    "iconKey": "museum",
    "region": "fo3",
    "game": "fo3",
    "source": "canon",
    "icon": "museum"
  },
  {
    "id": "capitol_building_fo3",
    "name": "Capitol Building",
    "lat": 38.8899,
    "lng": -77.0091,
    "lvl": 20,
    "rarity": "epic",
    "iconKey": "ruins",
    "region": "fo3",
    "game": "fo3",
    "source": "canon",
    "icon": "ruins"
  },
  {
    "id": "statesman_hotel_fo3",
    "name": "Statesman Hotel",
    "lat": 38.8925,
    "lng": -77.0205,
    "lvl": 16,
    "rarity": "common",
    "iconKey": "hotel",
    "region": "fo3",
    "game": "fo3",
    "source": "canon",
    "icon": "hotel"
  },
  {
    "id": "trinity_tower_fo3",
    "name": "Trinity Tower",
    "lat": 38.8922,
    "lng": -77.018,
    "lvl": 17,
    "rarity": "common",
    "iconKey": "tower",
    "region": "fo3",
    "game": "fo3",
    "source": "canon",
    "icon": "tower"
  },
  {
    "id": "fort_constantine_fo3",
    "name": "Fort Constantine",
    "lat": 39.2,
    "lng": -77.3,
    "lvl": 22,
    "rarity": "epic",
    "iconKey": "fort",
    "region": "fo3",
    "game": "fo3",
    "source": "canon",
    "icon": "fort"
  },
  {
    "id": "fort_bannister_fo3",
    "name": "Fort Bannister",
    "lat": 38.75,
    "lng": -77.2,
    "lvl": 18,
    "rarity": "rare",
    "iconKey": "fort",
    "region": "fo3",
    "game": "fo3",
    "source": "canon",
    "icon": "fort"
  },
  {
    "id": "fort_independence_fo3",
    "name": "Fort Independence",
    "lat": 38.84,
    "lng": -77.07,
    "lvl": 17,
    "rarity": "rare",
    "iconKey": "fort",
    "region": "fo3",
    "game": "fo3",
    "source": "canon",
    "icon": "fort"
  },
  {
    "id": "anchorage_memorial_fo3",
    "name": "Anchorage Memorial",
    "lat": 38.889,
    "lng": -77.04,
    "lvl": 10,
    "rarity": "common",
    "iconKey": "ruins",
    "region": "fo3",
    "game": "fo3",
    "source": "canon",
    "icon": "ruins"
  },
  {
    "id": "reilly_rangers_fo3",
    "name": "Ranger Compound",
    "lat": 38.905,
    "lng": -77.03,
    "lvl": 14,
    "rarity": "rare",
    "iconKey": "camp",
    "region": "fo3",
    "game": "fo3",
    "source": "canon",
    "icon": "camp"
  },
  {
    "id": "regulator_hq_fo3",
    "name": "Regulator HQ",
    "lat": 39.1,
    "lng": -77.15,
    "lvl": 18,
    "rarity": "rare",
    "iconKey": "camp",
    "region": "fo3",
    "game": "fo3",
    "source": "canon",
    "icon": "camp"
  },
  {
    "id": "slaver_town_paradise_falls_fo3",
    "name": "Paradise Falls",
    "lat": 39.1,
    "lng": -77.35,
    "lvl": 16,
    "rarity": "rare",
    "iconKey": "camp",
    "region": "fo3",
    "game": "fo3",
    "source": "canon",
    "icon": "camp"
  },
  {
    "id": "smith_caseys_garage_fo3",
    "name": "Smith Casey's Garage",
    "lat": 38.995,
    "lng": -77.115,
    "lvl": 10,
    "rarity": "common",
    "iconKey": "ruins",
    "region": "fo3",
    "game": "fo3",
    "source": "canon",
    "icon": "ruins"
  },
  {
    "id": "minefield_fo3",
    "name": "Minefield",
    "lat": 39.12,
    "lng": -77.25,
    "lvl": 12,
    "rarity": "common",
    "iconKey": "danger",
    "region": "fo3",
    "game": "fo3",
    "source": "canon",
    "icon": "danger"
  },
  {
    "id": "tepid_sewers_fo3",
    "name": "Tepid Sewers",
    "lat": 38.895,
    "lng": -77.01,
    "lvl": 8,
    "rarity": "common",
    "iconKey": "sewer",
    "region": "fo3",
    "game": "fo3",
    "source": "canon",
    "icon": "sewer"
  },
  {
    "id": "jury_street_metro_fo3",
    "name": "Jury Street Metro Station",
    "lat": 39.02,
    "lng": -77.11,
    "lvl": 14,
    "rarity": "common",
    "iconKey": "metro",
    "region": "fo3",
    "game": "fo3",
    "source": "canon",
    "icon": "metro"
  },
  {
    "id": "dupont_station_fo3",
    "name": "Dupont Circle Metro",
    "lat": 38.91,
    "lng": -77.0455,
    "lvl": 14,
    "rarity": "common",
    "iconKey": "metro",
    "region": "fo3",
    "game": "fo3",
    "source": "canon",
    "icon": "metro"
  },
  {
    "id": "metro_central_fo3",
    "name": "Metro Central",
    "lat": 38.895,
    "lng": -77.02,
    "lvl": 16,
    "rarity": "common",
    "iconKey": "metro",
    "region": "fo3",
    "game": "fo3",
    "source": "canon",
    "icon": "metro"
  },
  {
    "id": "farragut_metro_fo3",
    "name": "Farragut West Metro",
    "lat": 38.901,
    "lng": -77.04,
    "lvl": 13,
    "rarity": "common",
    "iconKey": "metro",
    "region": "fo3",
    "game": "fo3",
    "source": "canon",
    "icon": "metro"
  },
  {
    "id": "evergreen_mills_fo3",
    "name": "Evergreen Mills",
    "lat": 39.05,
    "lng": -77.4,
    "lvl": 20,
    "rarity": "epic",
    "iconKey": "raider",
    "region": "fo3",
    "game": "fo3",
    "source": "canon",
    "icon": "raider"
  },
  {
    "id": "jerrys_gas_n_go_fo3",
    "name": "Jerrys Gas & Go",
    "lat": 39.01,
    "lng": -77.23,
    "lvl": 8,
    "rarity": "common",
    "iconKey": "ruins",
    "region": "fo3",
    "game": "fo3",
    "source": "canon",
    "icon": "ruins"
  },
  {
    "id": "hallowed_moors_cemetery_fo3",
    "name": "Hallowed Moors Cemetery",
    "lat": 38.87,
    "lng": -77.11,
    "lvl": 16,
    "rarity": "rare",
    "iconKey": "cemetery",
    "region": "fo3",
    "game": "fo3",
    "source": "canon",
    "icon": "cemetery"
  },
  {
    "id": "deathclaw_sanctuary_fo3",
    "name": "Deathclaw Sanctuary",
    "lat": 39.25,
    "lng": -77.45,
    "lvl": 24,
    "rarity": "legendary",
    "iconKey": "danger",
    "region": "fo3",
    "game": "fo3",
    "source": "canon",
    "icon": "danger"
  },
  {
    "id": "old_olney_fo3",
    "name": "Old Olney",
    "lat": 39.2,
    "lng": -77.35,
    "lvl": 20,
    "rarity": "epic",
    "iconKey": "ruins",
    "region": "fo3",
    "game": "fo3",
    "source": "canon",
    "icon": "ruins"
  },
  {
    "id": "dunwich_building_fo3",
    "name": "Dunwich Building",
    "lat": 38.82,
    "lng": -77.35,
    "lvl": 20,
    "rarity": "epic",
    "iconKey": "ruins",
    "region": "fo3",
    "game": "fo3",
    "source": "canon",
    "icon": "ruins"
  },
  {
    "id": "rockopolis_fo3",
    "name": "Rockopolis",
    "lat": 38.93,
    "lng": -77.28,
    "lvl": 12,
    "rarity": "rare",
    "iconKey": "cave",
    "region": "fo3",
    "game": "fo3",
    "source": "canon",
    "icon": "cave"
  },
  {
    "id": "meresti_trainyard_fo3",
    "name": "Meresti Trainyard",
    "lat": 39.18,
    "lng": -77.28,
    "lvl": 16,
    "rarity": "rare",
    "iconKey": "station",
    "region": "fo3",
    "game": "fo3",
    "source": "canon",
    "icon": "station"
  },
  {
    "id": "meresti_metro_station_fo3",
    "name": "Meresti Metro Station",
    "lat": 39.181,
    "lng": -77.281,
    "lvl": 16,
    "rarity": "rare",
    "iconKey": "metro",
    "region": "fo3",
    "game": "fo3",
    "source": "canon",
    "icon": "metro"
  },
  {
    "id": "scrapyard_fo3",
    "name": "Scrapyard",
    "lat": 39.08,
    "lng": -77.23,
    "lvl": 8,
    "rarity": "common",
    "iconKey": "ruins",
    "region": "fo3",
    "game": "fo3",
    "source": "canon",
    "icon": "ruins"
  },
  {
    "id": "abandoned_car_tunnel_fo3",
    "name": "Abandoned Car Tunnel",
    "lat": 39.02,
    "lng": -77.26,
    "lvl": 10,
    "rarity": "common",
    "iconKey": "tunnel",
    "region": "fo3",
    "game": "fo3",
    "source": "canon",
    "icon": "tunnel"
  },
  {
    "id": "yao_guai_tunnels_fo3",
    "name": "Yao Guai Tunnels",
    "lat": 39,
    "lng": -77.32,
    "lvl": 18,
    "rarity": "rare",
    "iconKey": "cave",
    "region": "fo3",
    "game": "fo3",
    "source": "canon",
    "icon": "tunnel"
  },
  {
    "id": "sanctuary_fo4",
    "name": "Sanctuary Hills",
    "lat": 42.462,
    "lng": -71.204,
    "lvl": 1,
    "rarity": "common",
    "iconKey": "town",
    "region": "fo4",
    "game": "fo4",
    "source": "canon",
    "icon": "town"
  },
  {
    "id": "red_rocket_fo4",
    "name": "Red Rocket Truck Stop",
    "lat": 42.46,
    "lng": -71.2,
    "lvl": 2,
    "rarity": "common",
    "iconKey": "shop",
    "region": "fo4",
    "game": "fo4",
    "source": "canon",
    "icon": "shop"
  },
  {
    "id": "concord_fo4",
    "name": "Concord",
    "lat": 42.461,
    "lng": -71.18,
    "lvl": 3,
    "rarity": "common",
    "iconKey": "town",
    "region": "fo4",
    "game": "fo4",
    "source": "canon",
    "icon": "town"
  },
  {
    "id": "museum_freedom_fo4",
    "name": "Museum of Freedom",
    "lat": 42.4615,
    "lng": -71.178,
    "lvl": 4,
    "rarity": "common",
    "iconKey": "museum",
    "region": "fo4",
    "game": "fo4",
    "source": "canon",
    "icon": "museum"
  },
  {
    "id": "starlight_drivein_fo4",
    "name": "Starlight Drive-In",
    "lat": 42.47,
    "lng": -71.16,
    "lvl": 5,
    "rarity": "common",
    "iconKey": "ruins",
    "region": "fo4",
    "game": "fo4",
    "source": "canon",
    "icon": "ruins"
  },
  {
    "id": "tenpines_bluff_fo4",
    "name": "Tenpines Bluff",
    "lat": 42.5,
    "lng": -71.15,
    "lvl": 6,
    "rarity": "common",
    "iconKey": "farm",
    "region": "fo4",
    "game": "fo4",
    "source": "canon",
    "icon": "farm"
  },
  {
    "id": "oberland_station_fo4",
    "name": "Oberland Station",
    "lat": 42.38,
    "lng": -71.16,
    "lvl": 7,
    "rarity": "common",
    "iconKey": "station",
    "region": "fo4",
    "game": "fo4",
    "source": "canon",
    "icon": "station"
  },
  {
    "id": "sunshine_tidings_fo4",
    "name": "Sunshine Tidings Co-op",
    "lat": 42.42,
    "lng": -71.3,
    "lvl": 8,
    "rarity": "common",
    "iconKey": "farm",
    "region": "fo4",
    "game": "fo4",
    "source": "canon",
    "icon": "farm"
  },
  {
    "id": "greygarden_fo4",
    "name": "Greygarden",
    "lat": 42.38,
    "lng": -71.2,
    "lvl": 10,
    "rarity": "rare",
    "iconKey": "farm",
    "region": "fo4",
    "game": "fo4",
    "source": "canon",
    "icon": "farm"
  },
  {
    "id": "covenant_fo4",
    "name": "Covenant",
    "lat": 42.52,
    "lng": -71.18,
    "lvl": 12,
    "rarity": "rare",
    "iconKey": "town",
    "region": "fo4",
    "game": "fo4",
    "source": "canon",
    "icon": "town"
  },
  {
    "id": "vault_111_fo4",
    "name": "Vault 111",
    "lat": 42.463,
    "lng": -71.205,
    "lvl": 1,
    "rarity": "common",
    "iconKey": "vault",
    "region": "fo4",
    "game": "fo4",
    "source": "canon",
    "icon": "vault"
  },
  {
    "id": "vault_81_fo4",
    "name": "Vault 81",
    "lat": 42.35,
    "lng": -71.12,
    "lvl": 18,
    "rarity": "rare",
    "iconKey": "vault",
    "region": "fo4",
    "game": "fo4",
    "source": "canon",
    "icon": "vault"
  },
  {
    "id": "vault_95_fo4",
    "name": "Vault 95",
    "lat": 42.2,
    "lng": -71.35,
    "lvl": 25,
    "rarity": "epic",
    "iconKey": "vault",
    "region": "fo4",
    "game": "fo4",
    "source": "canon",
    "icon": "vault"
  },
  {
    "id": "vault_75_fo4",
    "name": "Vault 75",
    "lat": 42.38,
    "lng": -71.05,
    "lvl": 20,
    "rarity": "rare",
    "iconKey": "vault",
    "region": "fo4",
    "game": "fo4",
    "source": "canon",
    "icon": "vault"
  },
  {
    "id": "vault_114_fo4",
    "name": "Vault 114",
    "lat": 42.36,
    "lng": -71.07,
    "lvl": 22,
    "rarity": "rare",
    "iconKey": "vault",
    "region": "fo4",
    "game": "fo4",
    "source": "canon",
    "icon": "vault"
  },
  {
    "id": "diamond_city_fo4",
    "name": "Diamond City",
    "lat": 42.346,
    "lng": -71.082,
    "lvl": 15,
    "rarity": "epic",
    "iconKey": "city",
    "region": "fo4",
    "game": "fo4",
    "source": "canon",
    "icon": "city"
  },
  {
    "id": "goodneighbor_fo4",
    "name": "Goodneighbor",
    "lat": 42.355,
    "lng": -71.065,
    "lvl": 18,
    "rarity": "rare",
    "iconKey": "city",
    "region": "fo4",
    "game": "fo4",
    "source": "canon",
    "icon": "city"
  },
  {
    "id": "bunker_hill_fo4",
    "name": "Bunker Hill",
    "lat": 42.374,
    "lng": -71.06,
    "lvl": 16,
    "rarity": "rare",
    "iconKey": "town",
    "region": "fo4",
    "game": "fo4",
    "source": "canon",
    "icon": "town"
  },
  {
    "id": "combat_zone_fo4",
    "name": "Combat Zone",
    "lat": 42.35,
    "lng": -71.065,
    "lvl": 20,
    "rarity": "rare",
    "iconKey": "arena",
    "region": "fo4",
    "game": "fo4",
    "source": "canon",
    "icon": "arena"
  },
  {
    "id": "trinity_tower_fo4",
    "name": "Trinity Tower",
    "lat": 42.36,
    "lng": -71.07,
    "lvl": 22,
    "rarity": "rare",
    "iconKey": "tower",
    "region": "fo4",
    "game": "fo4",
    "source": "canon",
    "icon": "tower"
  },
  {
    "id": "mass_fusion_fo4",
    "name": "Mass Fusion Building",
    "lat": 42.358,
    "lng": -71.058,
    "lvl": 25,
    "rarity": "epic",
    "iconKey": "facility",
    "region": "fo4",
    "game": "fo4",
    "source": "canon",
    "icon": "facility"
  },
  {
    "id": "old_north_church_fo4",
    "name": "Old North Church",
    "lat": 42.366,
    "lng": -71.054,
    "lvl": 18,
    "rarity": "rare",
    "iconKey": "church",
    "region": "fo4",
    "game": "fo4",
    "source": "canon",
    "icon": "church"
  },
  {
    "id": "boston_public_library_fo4",
    "name": "Boston Public Library",
    "lat": 42.349,
    "lng": -71.078,
    "lvl": 20,
    "rarity": "rare",
    "iconKey": "library",
    "region": "fo4",
    "game": "fo4",
    "source": "canon",
    "icon": "library"
  },
  {
    "id": "police_station_cambridge_fo4",
    "name": "Cambridge Police Station",
    "lat": 42.373,
    "lng": -71.11,
    "lvl": 12,
    "rarity": "common",
    "iconKey": "police",
    "region": "fo4",
    "game": "fo4",
    "source": "canon",
    "icon": "police"
  },
  {
    "id": "prydwen_fo4",
    "name": "The Prydwen",
    "lat": 42.35,
    "lng": -71.08,
    "lvl": 30,
    "rarity": "legendary",
    "iconKey": "airship",
    "region": "fo4",
    "game": "fo4",
    "source": "canon",
    "icon": "airship"
  },
  {
    "id": "cambridge_bos_fo4",
    "name": "Cambridge BoS Outpost",
    "lat": 42.3735,
    "lng": -71.1105,
    "lvl": 15,
    "rarity": "rare",
    "iconKey": "faction",
    "region": "fo4",
    "game": "fo4",
    "source": "canon",
    "icon": "faction"
  },
  {
    "id": "railroad_hq_fo4",
    "name": "Railroad HQ",
    "lat": 42.3665,
    "lng": -71.0545,
    "lvl": 20,
    "rarity": "rare",
    "iconKey": "faction",
    "region": "fo4",
    "game": "fo4",
    "source": "canon",
    "icon": "faction"
  },
  {
    "id": "institute_fo4",
    "name": "The Institute",
    "lat": 42.36,
    "lng": -71.0589,
    "lvl": 40,
    "rarity": "legendary",
    "iconKey": "facility",
    "region": "fo4",
    "game": "fo4",
    "source": "canon",
    "icon": "facility"
  },
  {
    "id": "fort_hagen_fo4",
    "name": "Fort Hagen",
    "lat": 42.32,
    "lng": -71.12,
    "lvl": 18,
    "rarity": "rare",
    "iconKey": "fort",
    "region": "fo4",
    "game": "fo4",
    "source": "canon",
    "icon": "fort"
  },
  {
    "id": "revere_satellite_fo4",
    "name": "Revere Satellite Array",
    "lat": 42.41,
    "lng": -70.99,
    "lvl": 25,
    "rarity": "epic",
    "iconKey": "facility",
    "region": "fo4",
    "game": "fo4",
    "source": "canon",
    "icon": "facility"
  },
  {
    "id": "saugus_ironworks_fo4",
    "name": "Saugus Ironworks",
    "lat": 42.47,
    "lng": -71.01,
    "lvl": 22,
    "rarity": "rare",
    "iconKey": "factory",
    "region": "fo4",
    "game": "fo4",
    "source": "canon",
    "icon": "factory"
  },
  {
    "id": "lynn_woods_fo4",
    "name": "Lynn Woods",
    "lat": 42.48,
    "lng": -71.04,
    "lvl": 20,
    "rarity": "rare",
    "iconKey": "ruins",
    "region": "fo4",
    "game": "fo4",
    "source": "canon",
    "icon": "ruins"
  },
  {
    "id": "the_castle_fo4",
    "name": "The Castle",
    "lat": 42.338,
    "lng": -71.03,
    "lvl": 25,
    "rarity": "epic",
    "iconKey": "fort",
    "region": "fo4",
    "game": "fo4",
    "source": "canon",
    "icon": "fort"
  },
  {
    "id": "spectacle_island_fo4",
    "name": "Spectacle Island",
    "lat": 42.32,
    "lng": -70.99,
    "lvl": 30,
    "rarity": "epic",
    "iconKey": "island",
    "region": "fo4",
    "game": "fo4",
    "source": "canon",
    "icon": "island"
  },
  {
    "id": "glowing_sea_fo4",
    "name": "The Glowing Sea",
    "lat": 42.15,
    "lng": -71.45,
    "lvl": 35,
    "rarity": "legendary",
    "iconKey": "danger",
    "region": "fo4",
    "game": "fo4",
    "source": "canon",
    "icon": "danger"
  },
  {
    "id": "crater_of_atom_fo4",
    "name": "Crater of Atom",
    "lat": 42.14,
    "lng": -71.46,
    "lvl": 38,
    "rarity": "epic",
    "iconKey": "religion",
    "region": "fo4",
    "game": "fo4",
    "source": "canon",
    "icon": "religion"
  },
  {
    "id": "virgil_lab_fo4",
    "name": "Virgil's Laboratory",
    "lat": 42.13,
    "lng": -71.47,
    "lvl": 32,
    "rarity": "rare",
    "iconKey": "facility",
    "region": "fo4",
    "game": "fo4",
    "source": "canon",
    "icon": "facility"
  },
  {
    "id": "quincy_ruins_fo4",
    "name": "Quincy Ruins",
    "lat": 42.25,
    "lng": -71,
    "lvl": 28,
    "rarity": "epic",
    "iconKey": "ruins",
    "region": "fo4",
    "game": "fo4",
    "source": "canon",
    "icon": "ruins"
  },
  {
    "id": "jamaica_plain_fo4",
    "name": "Jamaica Plain",
    "lat": 42.3,
    "lng": -71.12,
    "lvl": 20,
    "rarity": "rare",
    "iconKey": "ruins",
    "region": "fo4",
    "game": "fo4",
    "source": "canon",
    "icon": "ruins"
  },
  {
    "id": "milton_general_fo4",
    "name": "Milton General Hospital",
    "lat": 42.28,
    "lng": -71.14,
    "lvl": 22,
    "rarity": "rare",
    "iconKey": "hospital",
    "region": "fo4",
    "game": "fo4",
    "source": "canon",
    "icon": "hospital"
  },
  {
    "id": "medford_memorial_fo4",
    "name": "Medford Memorial Hospital",
    "lat": 42.42,
    "lng": -71.1,
    "lvl": 18,
    "rarity": "common",
    "iconKey": "hospital",
    "region": "fo4",
    "game": "fo4",
    "source": "canon",
    "icon": "hospital"
  },
  {
    "id": "malden_center_fo4",
    "name": "Malden Center",
    "lat": 42.43,
    "lng": -71.07,
    "lvl": 16,
    "rarity": "common",
    "iconKey": "metro",
    "region": "fo4",
    "game": "fo4",
    "source": "canon",
    "icon": "metro"
  },
  {
    "id": "revere_beach_fo4",
    "name": "Revere Beach Station",
    "lat": 42.41,
    "lng": -70.99,
    "lvl": 14,
    "rarity": "common",
    "iconKey": "metro",
    "region": "fo4",
    "game": "fo4",
    "source": "canon",
    "icon": "metro"
  },
  {
    "id": "vault_76_fo76",
    "name": "Vault 76",
    "lat": 39,
    "lng": -79,
    "lvl": 1,
    "rarity": "common",
    "iconKey": "vault",
    "region": "fo76",
    "game": "fo76",
    "source": "canon",
    "icon": "vault"
  },
  {
    "id": "flatwoods_fo76",
    "name": "Flatwoods",
    "lat": 38.99,
    "lng": -79.01,
    "lvl": 5,
    "rarity": "common",
    "iconKey": "town",
    "region": "fo76",
    "game": "fo76",
    "source": "canon",
    "icon": "town"
  },
  {
    "id": "morgantown_fo76",
    "name": "Morgantown",
    "lat": 39.63,
    "lng": -79.95,
    "lvl": 8,
    "rarity": "common",
    "iconKey": "city",
    "region": "fo76",
    "game": "fo76",
    "source": "canon",
    "icon": "city"
  },
  {
    "id": "morgantown_airport_fo76",
    "name": "Morgantown Airport",
    "lat": 39.645,
    "lng": -79.915,
    "lvl": 10,
    "rarity": "common",
    "iconKey": "airport",
    "region": "fo76",
    "game": "fo76",
    "source": "canon",
    "icon": "airport"
  },
  {
    "id": "grafton_fo76",
    "name": "Grafton",
    "lat": 39.34,
    "lng": -80.02,
    "lvl": 12,
    "rarity": "common",
    "iconKey": "town",
    "region": "fo76",
    "game": "fo76",
    "source": "canon",
    "icon": "town"
  },
  {
    "id": "grafton_dam_fo76",
    "name": "Grafton Dam",
    "lat": 39.35,
    "lng": -80,
    "lvl": 14,
    "rarity": "rare",
    "iconKey": "facility",
    "region": "fo76",
    "game": "fo76",
    "source": "canon",
    "icon": "facility"
  },
  {
    "id": "vault_63_fo76",
    "name": "Vault 63",
    "lat": 38.15,
    "lng": -81.05,
    "lvl": 30,
    "rarity": "epic",
    "iconKey": "vault",
    "region": "fo76",
    "game": "fo76",
    "source": "canon",
    "icon": "vault"
  },
  {
    "id": "vault_94_fo76",
    "name": "Vault 94",
    "lat": 39.5,
    "lng": -79.3,
    "lvl": 35,
    "rarity": "epic",
    "iconKey": "vault",
    "region": "fo76",
    "game": "fo76",
    "source": "canon",
    "icon": "vault"
  },
  {
    "id": "vault_96_fo76",
    "name": "Vault 96",
    "lat": 38.2,
    "lng": -80.5,
    "lvl": 40,
    "rarity": "legendary",
    "iconKey": "vault",
    "region": "fo76",
    "game": "fo76",
    "source": "canon",
    "icon": "vault"
  },
  {
    "id": "charleston_fo76",
    "name": "Charleston",
    "lat": 38.35,
    "lng": -81.63,
    "lvl": 15,
    "rarity": "common",
    "iconKey": "city",
    "region": "fo76",
    "game": "fo76",
    "source": "canon",
    "icon": "city"
  },
  {
    "id": "charleston_capitol_fo76",
    "name": "Charleston Capitol Building",
    "lat": 38.336,
    "lng": -81.612,
    "lvl": 18,
    "rarity": "rare",
    "iconKey": "facility",
    "region": "fo76",
    "game": "fo76",
    "source": "canon",
    "icon": "facility"
  },
  {
    "id": "charleston_fire_dept_fo76",
    "name": "Charleston Fire Department",
    "lat": 38.337,
    "lng": -81.61,
    "lvl": 16,
    "rarity": "common",
    "iconKey": "fire",
    "region": "fo76",
    "game": "fo76",
    "source": "canon",
    "icon": "fire"
  },
  {
    "id": "airport_charleston_fo76",
    "name": "Charleston Airport",
    "lat": 38.37,
    "lng": -81.59,
    "lvl": 18,
    "rarity": "common",
    "iconKey": "airport",
    "region": "fo76",
    "game": "fo76",
    "source": "canon",
    "icon": "airport"
  },
  {
    "id": "watoga_fo76",
    "name": "Watoga",
    "lat": 38.05,
    "lng": -80.55,
    "lvl": 40,
    "rarity": "epic",
    "iconKey": "city",
    "region": "fo76",
    "game": "fo76",
    "source": "canon",
    "icon": "city"
  },
  {
    "id": "watoga_civic_center_fo76",
    "name": "Watoga Civic Center",
    "lat": 38.048,
    "lng": -80.548,
    "lvl": 42,
    "rarity": "rare",
    "iconKey": "facility",
    "region": "fo76",
    "game": "fo76",
    "source": "canon",
    "icon": "facility"
  },
  {
    "id": "watoga_transit_hub_fo76",
    "name": "Watoga Transit Hub",
    "lat": 38.049,
    "lng": -80.552,
    "lvl": 38,
    "rarity": "common",
    "iconKey": "station",
    "region": "fo76",
    "game": "fo76",
    "source": "canon",
    "icon": "station"
  },
  {
    "id": "harpers_ferry_fo76",
    "name": "Harpers Ferry",
    "lat": 39.325,
    "lng": -77.74,
    "lvl": 30,
    "rarity": "rare",
    "iconKey": "town",
    "region": "fo76",
    "game": "fo76",
    "source": "canon",
    "icon": "town"
  },
  {
    "id": "berkeley_springs_fo76",
    "name": "Berkeley Springs",
    "lat": 39.63,
    "lng": -78.23,
    "lvl": 20,
    "rarity": "common",
    "iconKey": "town",
    "region": "fo76",
    "game": "fo76",
    "source": "canon",
    "icon": "town"
  },
  {
    "id": "point_pleasant_fo76",
    "name": "Point Pleasant",
    "lat": 38.89,
    "lng": -82.13,
    "lvl": 18,
    "rarity": "rare",
    "iconKey": "town",
    "region": "fo76",
    "game": "fo76",
    "source": "canon",
    "icon": "town"
  },
  {
    "id": "mothman_museum_fo76",
    "name": "Mothman Museum",
    "lat": 38.8905,
    "lng": -82.1305,
    "lvl": 20,
    "rarity": "rare",
    "iconKey": "museum",
    "region": "fo76",
    "game": "fo76",
    "source": "canon",
    "icon": "museum"
  },
  {
    "id": "top_of_the_world_fo76",
    "name": "Top of the World",
    "lat": 38.7,
    "lng": -79.53,
    "lvl": 25,
    "rarity": "rare",
    "iconKey": "tower",
    "region": "fo76",
    "game": "fo76",
    "source": "canon",
    "icon": "tower"
  },
  {
    "id": "pleasant_valley_ski_fo76",
    "name": "Pleasant Valley Ski Resort",
    "lat": 38.69,
    "lng": -79.54,
    "lvl": 22,
    "rarity": "common",
    "iconKey": "resort",
    "region": "fo76",
    "game": "fo76",
    "source": "canon",
    "icon": "resort"
  },
  {
    "id": "monongah_mine_fo76",
    "name": "Monongah Mine",
    "lat": 39.53,
    "lng": -80.21,
    "lvl": 30,
    "rarity": "rare",
    "iconKey": "mine",
    "region": "fo76",
    "game": "fo76",
    "source": "canon",
    "icon": "mine"
  },
  {
    "id": "white_springs_fo76",
    "name": "White Springs Resort",
    "lat": 38.75,
    "lng": -80.3,
    "lvl": 28,
    "rarity": "rare",
    "iconKey": "resort",
    "region": "fo76",
    "game": "fo76",
    "source": "canon",
    "icon": "resort"
  },
  {
    "id": "white_springs_bunker_fo76",
    "name": "White Springs Bunker",
    "lat": 38.748,
    "lng": -80.298,
    "lvl": 35,
    "rarity": "epic",
    "iconKey": "bunker",
    "region": "fo76",
    "game": "fo76",
    "source": "canon",
    "icon": "bunker"
  },
  {
    "id": "fort_defiance_fo76",
    "name": "Fort Defiance",
    "lat": 38.1,
    "lng": -80.55,
    "lvl": 40,
    "rarity": "epic",
    "iconKey": "fort",
    "region": "fo76",
    "game": "fo76",
    "source": "canon",
    "icon": "fort"
  },
  {
    "id": "camp_venture_fo76",
    "name": "Camp Venture",
    "lat": 38.12,
    "lng": -80.53,
    "lvl": 32,
    "rarity": "rare",
    "iconKey": "camp",
    "region": "fo76",
    "game": "fo76",
    "source": "canon",
    "icon": "camp"
  },
  {
    "id": "the_bog_fo76",
    "name": "Cranberry Bog",
    "lat": 38.2,
    "lng": -80.6,
    "lvl": 35,
    "rarity": "epic",
    "iconKey": "wasteland",
    "region": "fo76",
    "game": "fo76",
    "source": "canon",
    "icon": "wasteland"
  },
  {
    "id": "quarry_x3_fo76",
    "name": "Quarry X3",
    "lat": 38.21,
    "lng": -80.62,
    "lvl": 38,
    "rarity": "rare",
    "iconKey": "danger",
    "region": "fo76",
    "game": "fo76",
    "source": "canon",
    "icon": "danger"
  },
  {
    "id": "fissure_site_prime_fo76",
    "name": "Fissure Site Prime",
    "lat": 38.18,
    "lng": -80.65,
    "lvl": 50,
    "rarity": "legendary",
    "iconKey": "danger",
    "region": "fo76",
    "game": "fo76",
    "source": "canon",
    "icon": "danger"
  },
  {
    "id": "toxic_valley_fo76",
    "name": "Toxic Valley",
    "lat": 39.35,
    "lng": -80,
    "lvl": 10,
    "rarity": "common",
    "iconKey": "wasteland",
    "region": "fo76",
    "game": "fo76",
    "source": "canon",
    "icon": "wasteland"
  },
  {
    "id": "wavy_willards_fo76",
    "name": "Wavy Willard's Water Park",
    "lat": 39.36,
    "lng": -80.02,
    "lvl": 12,
    "rarity": "common",
    "iconKey": "park",
    "region": "fo76",
    "game": "fo76",
    "source": "canon",
    "icon": "park"
  },
  {
    "id": "ash_heap_fo76",
    "name": "Ash Heap",
    "lat": 38.2,
    "lng": -81.2,
    "lvl": 20,
    "rarity": "common",
    "iconKey": "wasteland",
    "region": "fo76",
    "game": "fo76",
    "source": "canon",
    "icon": "wasteland"
  },
  {
    "id": "welch_fo76",
    "name": "Welch",
    "lat": 38.2,
    "lng": -81.21,
    "lvl": 18,
    "rarity": "common",
    "iconKey": "town",
    "region": "fo76",
    "game": "fo76",
    "source": "canon",
    "icon": "town"
  },
  {
    "id": "mount_blair_fo76",
    "name": "Mount Blair",
    "lat": 38.15,
    "lng": -81.25,
    "lvl": 25,
    "rarity": "rare",
    "iconKey": "mine",
    "region": "fo76",
    "game": "fo76",
    "source": "canon",
    "icon": "mine"
  },
  {
    "id": "the_mire_fo76",
    "name": "The Mire",
    "lat": 39.3,
    "lng": -78.3,
    "lvl": 25,
    "rarity": "rare",
    "iconKey": "wasteland",
    "region": "fo76",
    "game": "fo76",
    "source": "canon",
    "icon": "wasteland"
  },
  {
    "id": "dolly_sods_fo76",
    "name": "Dolly Sods Wilderness",
    "lat": 39.1,
    "lng": -79.3,
    "lvl": 28,
    "rarity": "rare",
    "iconKey": "wilderness",
    "region": "fo76",
    "game": "fo76",
    "source": "canon",
    "icon": "wilderness"
  },
  {
    "id": "tnt_dome_fo76",
    "name": "TNT Dome",
    "lat": 39.32,
    "lng": -78.31,
    "lvl": 30,
    "rarity": "rare",
    "iconKey": "facility",
    "region": "fo76",
    "game": "fo76",
    "source": "canon",
    "icon": "facility"
  },
  {
    "id": "mariposa_reactor_fo1",
    "name": "Mariposa Nuclear Vault",
    "lat": 37,
    "lng": -119,
    "lvl": 25,
    "rarity": "epic",
    "iconKey": "reactor",
    "region": "nuclear_sites",
    "game": "fo1",
    "source": "canon",
    "icon": "reactor"
  },
  {
    "id": "gecko_reactor_fo2",
    "name": "Gecko Nuclear Reactor",
    "lat": 40.75,
    "lng": -116.9,
    "lvl": 20,
    "rarity": "rare",
    "iconKey": "reactor",
    "region": "nuclear_sites",
    "game": "fo2",
    "source": "canon",
    "icon": "reactor"
  },
  {
    "id": "oil_rig_reactor_fo2",
    "name": "Enclave Oil Rig Reactor",
    "lat": 36,
    "lng": -130,
    "lvl": 40,
    "rarity": "legendary",
    "iconKey": "reactor",
    "region": "nuclear_sites",
    "game": "fo2",
    "source": "canon",
    "icon": "reactor"
  },
  {
    "id": "shady_sands_fo1",
    "name": "Shady Sands",
    "lat": 36.8,
    "lng": -116.95,
    "lvl": 5,
    "rarity": "common",
    "iconKey": "town",
    "region": "fo1_2",
    "game": "fo1",
    "source": "canon",
    "icon": "town"
  },
  {
    "id": "junkyard_fo1",
    "name": "The Hub",
    "lat": 34.05,
    "lng": -118.25,
    "lvl": 10,
    "rarity": "rare",
    "iconKey": "city",
    "region": "fo1_2",
    "game": "fo1",
    "source": "canon",
    "icon": "city"
  },
  {
    "id": "necropolis_fo1",
    "name": "Necropolis",
    "lat": 34.1,
    "lng": -118.2,
    "lvl": 12,
    "rarity": "rare",
    "iconKey": "ruins",
    "region": "fo1_2",
    "game": "fo1",
    "source": "canon",
    "icon": "ruins"
  },
  {
    "id": "boneyard_fo1",
    "name": "The Boneyard",
    "lat": 34,
    "lng": -118.25,
    "lvl": 14,
    "rarity": "rare",
    "iconKey": "ruins",
    "region": "fo1_2",
    "game": "fo1",
    "source": "canon",
    "icon": "ruins"
  },
  {
    "id": "cathedral_fo1",
    "name": "Cathedral",
    "lat": 34.005,
    "lng": -118.26,
    "lvl": 20,
    "rarity": "epic",
    "iconKey": "church",
    "region": "fo1_2",
    "game": "fo1",
    "source": "canon",
    "icon": "church"
  },
  {
    "id": "lost_hills_fo1",
    "name": "Lost Hills Brotherhood Bunker",
    "lat": 34.2,
    "lng": -118.45,
    "lvl": 18,
    "rarity": "rare",
    "iconKey": "bunker",
    "region": "fo1_2",
    "game": "fo1",
    "source": "canon",
    "icon": "bunker"
  },
  {
    "id": "mariposa_fo1",
    "name": "Mariposa Military Base",
    "lat": 37,
    "lng": -119,
    "lvl": 25,
    "rarity": "epic",
    "iconKey": "facility",
    "region": "fo1_2",
    "game": "fo1",
    "source": "canon",
    "icon": "facility"
  },
  {
    "id": "vault_13_fo1",
    "name": "Vault 13",
    "lat": 36.9,
    "lng": -116.9,
    "lvl": 1,
    "rarity": "common",
    "iconKey": "vault",
    "region": "fo1_2",
    "game": "fo1",
    "source": "canon",
    "icon": "vault"
  },
  {
    "id": "vault_15_fo1",
    "name": "Vault 15",
    "lat": 36.85,
    "lng": -116.92,
    "lvl": 8,
    "rarity": "common",
    "iconKey": "vault",
    "region": "fo1_2",
    "game": "fo1",
    "source": "canon",
    "icon": "vault"
  },
  {
    "id": "arroyo_fo2",
    "name": "Arroyo",
    "lat": 41,
    "lng": -123,
    "lvl": 1,
    "rarity": "common",
    "iconKey": "town",
    "region": "fo1_2",
    "game": "fo2",
    "source": "canon",
    "icon": "town"
  },
  {
    "id": "klamath_fo2",
    "name": "Klamath",
    "lat": 41.5,
    "lng": -122.5,
    "lvl": 4,
    "rarity": "common",
    "iconKey": "town",
    "region": "fo1_2",
    "game": "fo2",
    "source": "canon",
    "icon": "town"
  },
  {
    "id": "the_den_fo2",
    "name": "The Den",
    "lat": 40.8,
    "lng": -124,
    "lvl": 6,
    "rarity": "common",
    "iconKey": "town",
    "region": "fo1_2",
    "game": "fo2",
    "source": "canon",
    "icon": "town"
  },
  {
    "id": "modoc_fo2",
    "name": "Modoc",
    "lat": 41.6,
    "lng": -120.5,
    "lvl": 8,
    "rarity": "common",
    "iconKey": "town",
    "region": "fo1_2",
    "game": "fo2",
    "source": "canon",
    "icon": "town"
  },
  {
    "id": "vault_city_fo2",
    "name": "Vault City",
    "lat": 40.7,
    "lng": -116.8,
    "lvl": 12,
    "rarity": "rare",
    "iconKey": "city",
    "region": "fo1_2",
    "game": "fo2",
    "source": "canon",
    "icon": "city"
  },
  {
    "id": "gecko_fo2",
    "name": "Gecko",
    "lat": 40.75,
    "lng": -116.9,
    "lvl": 10,
    "rarity": "common",
    "iconKey": "reactor",
    "region": "fo1_2",
    "game": "fo2",
    "source": "canon",
    "icon": "reactor"
  },
  {
    "id": "redding_fo2",
    "name": "Redding",
    "lat": 40.6,
    "lng": -122.4,
    "lvl": 10,
    "rarity": "common",
    "iconKey": "town",
    "region": "fo1_2",
    "game": "fo2",
    "source": "canon",
    "icon": "town"
  },
  {
    "id": "new_reno_fo2",
    "name": "New Reno",
    "lat": 39.53,
    "lng": -119.81,
    "lvl": 15,
    "rarity": "rare",
    "iconKey": "city",
    "region": "fo1_2",
    "game": "fo2",
    "source": "canon",
    "icon": "city"
  },
  {
    "id": "broken_hills_fo2",
    "name": "Broken Hills",
    "lat": 40,
    "lng": -118,
    "lvl": 14,
    "rarity": "rare",
    "iconKey": "town",
    "region": "fo1_2",
    "game": "fo2",
    "source": "canon",
    "icon": "town"
  },
  {
    "id": "new_california_republic_fo2",
    "name": "NCR (Shady Sands Expanded)",
    "lat": 36.8,
    "lng": -116.95,
    "lvl": 20,
    "rarity": "epic",
    "iconKey": "city",
    "region": "fo1_2",
    "game": "fo2",
    "source": "canon",
    "icon": "city"
  },
  {
    "id": "san_francisco_fo2",
    "name": "San Francisco",
    "lat": 37.7749,
    "lng": -122.4194,
    "lvl": 25,
    "rarity": "epic",
    "iconKey": "city",
    "region": "fo1_2",
    "game": "fo2",
    "source": "canon",
    "icon": "city"
  },
  {
    "id": "navarro_fo2",
    "name": "Navarro Enclave Base",
    "lat": 38,
    "lng": -121.5,
    "lvl": 30,
    "rarity": "legendary",
    "iconKey": "facility",
    "region": "fo1_2",
    "game": "fo2",
    "source": "canon",
    "icon": "facility"
  },
  {
    "id": "oil_rig_fo2",
    "name": "Enclave Oil Rig",
    "lat": 36,
    "lng": -130,
    "lvl": 40,
    "rarity": "legendary",
    "iconKey": "facility",
    "region": "fo1_2",
    "game": "fo2",
    "source": "canon",
    "icon": "facility"
  },
  {
    "id": "brahmin_wood_fot",
    "name": "Brahmin Wood",
    "lat": 41,
    "lng": -89,
    "lvl": 1,
    "rarity": "common",
    "iconKey": "town",
    "region": "fot",
    "game": "fot",
    "source": "canon",
    "icon": "town"
  },
  {
    "id": "rock_falls_fot",
    "name": "Rock Falls",
    "lat": 41.2,
    "lng": -89.2,
    "lvl": 3,
    "rarity": "common",
    "iconKey": "town",
    "region": "fot",
    "game": "fot",
    "source": "canon",
    "icon": "town"
  },
  {
    "id": "mardin_fot",
    "name": "Mardin",
    "lat": 41.3,
    "lng": -89.3,
    "lvl": 4,
    "rarity": "common",
    "iconKey": "town",
    "region": "fot",
    "game": "fot",
    "source": "canon",
    "icon": "town"
  },
  {
    "id": "quincy_fot",
    "name": "Quincy",
    "lat": 39.93,
    "lng": -91.4,
    "lvl": 6,
    "rarity": "common",
    "iconKey": "town",
    "region": "fot",
    "game": "fot",
    "source": "canon",
    "icon": "town"
  },
  {
    "id": "macomb_fot",
    "name": "Macomb",
    "lat": 40.46,
    "lng": -90.67,
    "lvl": 8,
    "rarity": "common",
    "iconKey": "town",
    "region": "fot",
    "game": "fot",
    "source": "canon",
    "icon": "town"
  },
  {
    "id": "springfield_fot",
    "name": "Springfield",
    "lat": 39.8,
    "lng": -89.65,
    "lvl": 10,
    "rarity": "rare",
    "iconKey": "town",
    "region": "fot",
    "game": "fot",
    "source": "canon",
    "icon": "town"
  },
  {
    "id": "great_bend_fot",
    "name": "Great Bend",
    "lat": 38.36,
    "lng": -98.78,
    "lvl": 12,
    "rarity": "rare",
    "iconKey": "ruins",
    "region": "fot",
    "game": "fot",
    "source": "canon",
    "icon": "ruins"
  },
  {
    "id": "junction_city_fot",
    "name": "Junction City",
    "lat": 39.03,
    "lng": -96.83,
    "lvl": 14,
    "rarity": "common",
    "iconKey": "town",
    "region": "fot",
    "game": "fot",
    "source": "canon",
    "icon": "town"
  },
  {
    "id": "coldwater_fot",
    "name": "Coldwater",
    "lat": 38.08,
    "lng": -99.33,
    "lvl": 16,
    "rarity": "rare",
    "iconKey": "town",
    "region": "fot",
    "game": "fot",
    "source": "canon",
    "icon": "town"
  },
  {
    "id": "st_louis_fot",
    "name": "St. Louis",
    "lat": 38.627,
    "lng": -90.199,
    "lvl": 18,
    "rarity": "epic",
    "iconKey": "city",
    "region": "fot",
    "game": "fot",
    "source": "canon",
    "icon": "city"
  },
  {
    "id": "delta_fot",
    "name": "Delta",
    "lat": 38.5,
    "lng": -90.3,
    "lvl": 20,
    "rarity": "rare",
    "iconKey": "town",
    "region": "fot",
    "game": "fot",
    "source": "canon",
    "icon": "town"
  },
  {
    "id": "kansas_city_fot",
    "name": "Kansas City",
    "lat": 39.0997,
    "lng": -94.5786,
    "lvl": 22,
    "rarity": "epic",
    "iconKey": "city",
    "region": "fot",
    "game": "fot",
    "source": "canon",
    "icon": "city"
  },
  {
    "id": "osceola_fot",
    "name": "Osceola",
    "lat": 38.04,
    "lng": -93.7,
    "lvl": 24,
    "rarity": "rare",
    "iconKey": "town",
    "region": "fot",
    "game": "fot",
    "source": "canon",
    "icon": "town"
  },
  {
    "id": "jefferson_fot",
    "name": "Jefferson",
    "lat": 38.58,
    "lng": -92.17,
    "lvl": 26,
    "rarity": "rare",
    "iconKey": "town",
    "region": "fot",
    "game": "fot",
    "source": "canon",
    "icon": "town"
  },
  {
    "id": "springfield_reaver_fot",
    "name": "Reaver Settlement (Springfield)",
    "lat": 39.79,
    "lng": -89.64,
    "lvl": 28,
    "rarity": "rare",
    "iconKey": "faction",
    "region": "fot",
    "game": "fot",
    "source": "canon",
    "icon": "faction"
  },
  {
    "id": "canyon_city_fot",
    "name": "Canyon City",
    "lat": 38.9,
    "lng": -104.7,
    "lvl": 30,
    "rarity": "epic",
    "iconKey": "ruins",
    "region": "fot",
    "game": "fot",
    "source": "canon",
    "icon": "ruins"
  },
  {
    "id": "bunker_alpha_fot",
    "name": "Brotherhood Bunker Alpha",
    "lat": 41.1,
    "lng": -89.1,
    "lvl": 5,
    "rarity": "rare",
    "iconKey": "bunker",
    "region": "fot",
    "game": "fot",
    "source": "canon",
    "icon": "bunker"
  },
  {
    "id": "bunker_beta_fot",
    "name": "Brotherhood Bunker Beta",
    "lat": 40.5,
    "lng": -90.5,
    "lvl": 10,
    "rarity": "rare",
    "iconKey": "bunker",
    "region": "fot",
    "game": "fot",
    "source": "canon",
    "icon": "bunker"
  },
  {
    "id": "bunker_gamma_fot",
    "name": "Brotherhood Bunker Gamma",
    "lat": 39.8,
    "lng": -89.7,
    "lvl": 15,
    "rarity": "rare",
    "iconKey": "bunker",
    "region": "fot",
    "game": "fot",
    "source": "canon",
    "icon": "bunker"
  },
  {
    "id": "bunker_delta_fot",
    "name": "Brotherhood Bunker Delta",
    "lat": 38.6,
    "lng": -90.2,
    "lvl": 20,
    "rarity": "rare",
    "iconKey": "bunker",
    "region": "fot",
    "game": "fot",
    "source": "canon",
    "icon": "bunker"
  },
  {
    "id": "bunker_epsilon_fot",
    "name": "Brotherhood Bunker Epsilon",
    "lat": 39.1,
    "lng": -94.6,
    "lvl": 25,
    "rarity": "rare",
    "iconKey": "bunker",
    "region": "fot",
    "game": "fot",
    "source": "canon",
    "icon": "bunker"
  },
  {
    "id": "bunker_zeta_fot",
    "name": "Brotherhood Bunker Zeta",
    "lat": 38.9,
    "lng": -104.7,
    "lvl": 30,
    "rarity": "epic",
    "iconKey": "bunker",
    "region": "fot",
    "game": "fot",
    "source": "canon",
    "icon": "bunker"
  },
  {
    "id": "robot_factory_fot",
    "name": "Robot Factory",
    "lat": 38.85,
    "lng": -104.65,
    "lvl": 32,
    "rarity": "epic",
    "iconKey": "facility",
    "region": "fot",
    "game": "fot",
    "source": "canon",
    "icon": "facility"
  },
  {
    "id": "vault_0_fot",
    "name": "Vault 0",
    "lat": 38.9,
    "lng": -104.8,
    "lvl": 40,
    "rarity": "legendary",
    "iconKey": "vault",
    "region": "fot",
    "game": "fot",
    "source": "canon",
    "icon": "vault"
  },
  {
    "id": "brahmin_wood_bos",
    "name": "Brahmin Wood",
    "lat": 34.2,
    "lng": -118.45,
    "lvl": 1,
    "rarity": "common",
    "iconKey": "town",
    "region": "bos",
    "game": "bos",
    "source": "canon",
    "icon": "town"
  },
  {
    "id": "los_bos",
    "name": "Los",
    "lat": 34.05,
    "lng": -118.25,
    "lvl": 5,
    "rarity": "rare",
    "iconKey": "city",
    "region": "bos",
    "game": "bos",
    "source": "canon",
    "icon": "city"
  },
  {
    "id": "los_sewers_bos",
    "name": "Los Sewers",
    "lat": 34.049,
    "lng": -118.249,
    "lvl": 6,
    "rarity": "common",
    "iconKey": "sewer",
    "region": "bos",
    "game": "bos",
    "source": "canon",
    "icon": "sewer"
  },
  {
    "id": "los_ruins_bos",
    "name": "Los Ruins",
    "lat": 34.048,
    "lng": -118.248,
    "lvl": 7,
    "rarity": "common",
    "iconKey": "ruins",
    "region": "bos",
    "game": "bos",
    "source": "canon",
    "icon": "ruins"
  },
  {
    "id": "kansas_city_bos",
    "name": "Kansas City",
    "lat": 39.0997,
    "lng": -94.5786,
    "lvl": 10,
    "rarity": "rare",
    "iconKey": "city",
    "region": "bos",
    "game": "bos",
    "source": "canon",
    "icon": "city"
  },
  {
    "id": "kansas_city_sewers_bos",
    "name": "Kansas City Sewers",
    "lat": 39.099,
    "lng": -94.579,
    "lvl": 11,
    "rarity": "common",
    "iconKey": "sewer",
    "region": "bos",
    "game": "bos",
    "source": "canon",
    "icon": "sewer"
  },
  {
    "id": "kansas_city_mutant_den_bos",
    "name": "Mutant Den (Kansas City)",
    "lat": 39.098,
    "lng": -94.58,
    "lvl": 12,
    "rarity": "rare",
    "iconKey": "danger",
    "region": "bos",
    "game": "bos",
    "source": "canon",
    "icon": "danger"
  },
  {
    "id": "phoenix_bos",
    "name": "Phoenix",
    "lat": 33.4484,
    "lng": -112.074,
    "lvl": 15,
    "rarity": "rare",
    "iconKey": "city",
    "region": "bos",
    "game": "bos",
    "source": "canon",
    "icon": "city"
  },
  {
    "id": "phoenix_reactor_bos",
    "name": "Phoenix Nuclear Plant",
    "lat": 33.449,
    "lng": -112.073,
    "lvl": 18,
    "rarity": "epic",
    "iconKey": "reactor",
    "region": "bos",
    "game": "bos",
    "source": "canon",
    "icon": "reactor"
  },
  {
    "id": "phoenix_robot_factory_bos",
    "name": "Phoenix Robot Factory",
    "lat": 33.45,
    "lng": -112.072,
    "lvl": 20,
    "rarity": "epic",
    "iconKey": "facility",
    "region": "bos",
    "game": "bos",
    "source": "canon",
    "icon": "facility"
  },
  {
    "id": "boulder_bos",
    "name": "Boulder",
    "lat": 40.014,
    "lng": -105.27,
    "lvl": 22,
    "rarity": "rare",
    "iconKey": "city",
    "region": "bos",
    "game": "bos",
    "source": "canon",
    "icon": "city"
  },
  {
    "id": "boulder_mutant_labs_bos",
    "name": "Boulder Mutant Labs",
    "lat": 40.015,
    "lng": -105.271,
    "lvl": 24,
    "rarity": "epic",
    "iconKey": "facility",
    "region": "bos",
    "game": "bos",
    "source": "canon",
    "icon": "facility"
  },
  {
    "id": "carbon_bos",
    "name": "Carbon",
    "lat": 39.6,
    "lng": -110.8,
    "lvl": 26,
    "rarity": "rare",
    "iconKey": "town",
    "region": "bos",
    "game": "bos",
    "source": "canon",
    "icon": "town"
  },
  {
    "id": "carbon_mines_bos",
    "name": "Carbon Mines",
    "lat": 39.601,
    "lng": -110.801,
    "lvl": 27,
    "rarity": "common",
    "iconKey": "mine",
    "region": "bos",
    "game": "bos",
    "source": "canon",
    "icon": "mine"
  },
  {
    "id": "carbon_mutant_pits_bos",
    "name": "Carbon Mutant Pits",
    "lat": 39.602,
    "lng": -110.802,
    "lvl": 28,
    "rarity": "rare",
    "iconKey": "danger",
    "region": "bos",
    "game": "bos",
    "source": "canon",
    "icon": "danger"
  },
  {
    "id": "vault_tec_hq_bos",
    "name": "Vault-Tec HQ",
    "lat": 34,
    "lng": -118.25,
    "lvl": 30,
    "rarity": "epic",
    "iconKey": "facility",
    "region": "bos",
    "game": "bos",
    "source": "canon",
    "icon": "facility"
  },
  {
    "id": "vault_tec_reactor_bos",
    "name": "Vault-Tec Reactor Core",
    "lat": 34.001,
    "lng": -118.251,
    "lvl": 32,
    "rarity": "legendary",
    "iconKey": "reactor",
    "region": "bos",
    "game": "bos",
    "source": "canon",
    "icon": "reactor"
  },
  {
    "id": "calculator_core_bos",
    "name": "The Calculator Core",
    "lat": 34.002,
    "lng": -118.252,
    "lvl": 40,
    "rarity": "legendary",
    "iconKey": "facility",
    "region": "bos",
    "game": "bos",
    "source": "canon",
    "icon": "facility"
  },
  {
    "id": "calculator_chamber_bos",
    "name": "Calculator Final Chamber",
    "lat": 34.003,
    "lng": -118.253,
    "lvl": 45,
    "rarity": "legendary",
    "iconKey": "danger",
    "region": "bos",
    "game": "bos",
    "source": "canon",
    "icon": "danger"
  },
  {
    "id": "nuclear_nevada_test_site",
    "name": "Nevada Test Site",
    "lat": 37.1167,
    "lng": -116.05,
    "lvl": 50,
    "rarity": "legendary",
    "iconKey": "reactor",
    "region": "nuclear_sites",
    "game": "real",
    "source": "real",
    "icon": "reactor"
  },
  {
    "id": "nuclear_hanford_site",
    "name": "Hanford Site",
    "lat": 46.55,
    "lng": -119.5833,
    "lvl": 50,
    "rarity": "legendary",
    "iconKey": "reactor",
    "region": "nuclear_sites",
    "game": "real",
    "source": "real",
    "icon": "reactor"
  },
  {
    "id": "nuclear_oak_ridge",
    "name": "Oak Ridge National Lab",
    "lat": 35.93,
    "lng": -84.31,
    "lvl": 45,
    "rarity": "epic",
    "iconKey": "reactor",
    "region": "nuclear_sites",
    "game": "real",
    "source": "real",
    "icon": "reactor"
  },
  {
    "id": "nuclear_savannah_river",
    "name": "Savannah River Site",
    "lat": 33.2,
    "lng": -81.73,
    "lvl": 45,
    "rarity": "epic",
    "iconKey": "reactor",
    "region": "nuclear_sites",
    "game": "real",
    "source": "real",
    "icon": "reactor"
  },
  {
    "id": "nuclear_three_mile_island",
    "name": "Three Mile Island",
    "lat": 40.153,
    "lng": -76.725,
    "lvl": 40,
    "rarity": "rare",
    "iconKey": "reactor",
    "region": "nuclear_sites",
    "game": "real",
    "source": "real",
    "icon": "reactor"
  },
  {
    "id": "nuclear_chernobyl",
    "name": "Chernobyl NPP",
    "lat": 51.276,
    "lng": 30.221,
    "lvl": 60,
    "rarity": "legendary",
    "iconKey": "reactor",
    "region": "nuclear_sites",
    "game": "real",
    "source": "real",
    "icon": "reactor"
  },
  {
    "id": "nuclear_fukushima",
    "name": "Fukushima Daiichi",
    "lat": 37.421,
    "lng": 141.032,
    "lvl": 60,
    "rarity": "legendary",
    "iconKey": "reactor",
    "region": "nuclear_sites",
    "game": "real",
    "source": "real",
    "icon": "reactor"
  },
  {
    "id": "nuclear_zaporizhzhia",
    "name": "Zaporizhzhia NPP",
    "lat": 47.51,
    "lng": 34.585,
    "lvl": 55,
    "rarity": "epic",
    "iconKey": "reactor",
    "region": "nuclear_sites",
    "game": "real",
    "source": "real",
    "icon": "reactor"
  },
  {
    "id": "nuclear_palo_verde",
    "name": "Palo Verde Nuclear Plant",
    "lat": 33.389,
    "lng": -112.865,
    "lvl": 40,
    "rarity": "rare",
    "iconKey": "reactor",
    "region": "nuclear_sites",
    "game": "real",
    "source": "real",
    "icon": "reactor"
  },
  {
    "id": "nuclear_diablo_canyon",
    "name": "Diablo Canyon Nuclear Plant",
    "lat": 35.21,
    "lng": -120.85,
    "lvl": 40,
    "rarity": "rare",
    "iconKey": "reactor",
    "region": "nuclear_sites",
    "game": "real",
    "source": "real",
    "icon": "reactor"
  },
  {
    "id": "anchorage_outpost_fo3",
    "name": "U.S. Army Anchorage Outpost",
    "lat": 61.218,
    "lng": -149.9,
    "lvl": 20,
    "rarity": "rare",
    "iconKey": "military",
    "region": "fo3_anchorage",
    "game": "fo3",
    "source": "canon",
    "icon": "military"
  },
  {
    "id": "anchorage_hq_fo3",
    "name": "U.S. Army Field HQ",
    "lat": 61.219,
    "lng": -149.901,
    "lvl": 22,
    "rarity": "rare",
    "iconKey": "military",
    "region": "fo3_anchorage",
    "game": "fo3",
    "source": "canon",
    "icon": "military"
  },
  {
    "id": "anchorage_artillery_base_fo3",
    "name": "Artillery Base",
    "lat": 61.22,
    "lng": -149.905,
    "lvl": 24,
    "rarity": "epic",
    "iconKey": "facility",
    "region": "fo3_anchorage",
    "game": "fo3",
    "source": "canon",
    "icon": "facility"
  },
  {
    "id": "anchorage_cliffs_fo3",
    "name": "Frozen Cliffs",
    "lat": 61.225,
    "lng": -149.91,
    "lvl": 26,
    "rarity": "rare",
    "iconKey": "wilderness",
    "region": "fo3_anchorage",
    "game": "fo3",
    "source": "canon",
    "icon": "wilderness"
  }
]