[
  {
    "id": "goodsprings_saloon",
    "name": "Goodsprings Saloon",
    "lat": 35.8324,
    "lng": -115.432,
    "lvl": 1,
    "rarity": "common",
    "triggerRadius": 60,
    "loot": {
      "items": ["leather_jacket", "rusted_pan", "rusted_spoon", "rusted_wrench", "scrap_metal"],
      "xp": 20,
      "caps": 18
    }
  },
  {
    "id": "primm_rollercoaster",
    "name": "Primm Rollercoaster",
    "lat": 35.6145,
    "lng": -115.3845,
    "lvl": 2,
    "rarity": "common",
    "triggerRadius": 60,
    "loot": {
      "items": ["makeshift_shield", "sawed_off_shotgun"],
      "xp": 25,
      "caps": 30
    }
  },
  {
    "id": "novac_motel",
    "name": "Novac Motel",
    "lat": 35.0525,
    "lng": -114.8247,
    "lvl": 5,
    "rarity": "rare",
    "triggerRadius": 80,
    "loot": {
      "items": ["novac_patrol_vest", "trail_carbine", "stimpak"],
      "xp": 60,
      "caps": 55
    }
  },
  {
    "id": "hoover_dam",
    "name": "Hoover Dam",
    "lat": 36.016,
    "lng": -114.738,
    "lvl": 12,
    "rarity": "epic",
    "triggerRadius": 120,
    "loot": {
      "items": [],
      "xp": 120,
      "caps": 100
    }
  },
  {
    "id": "the_strip_gate",
    "name": "The Strip Gate",
    "lat": 36.1147,
    "lng": -115.1728,
    "lvl": 15,
    "rarity": "epic",
    "triggerRadius": 120,
    "loot": {
      "items": [],
      "xp": 140,
      "caps": 120
    }
  },
  {
    "id": "lucky_38",
    "name": "Lucky 38",
    "lat": 36.147,
    "lng": -115.156,
    "lvl": 18,
    "rarity": "epic",
    "triggerRadius": 120,
    "loot": {
      "items": ["casino_chip"],
      "xp": 160,
      "caps": 150
    }
  },
  {
    "id": "black_mountain",
    "name": "Black Mountain",
    "lat": 35.931,
    "lng": -115.044,
    "lvl": 20,
    "rarity": "epic",
    "triggerRadius": 140,
    "loot": {
      "items": ["ancient_relic", "plasma_caster", "dragon_s_roar"],
      "xp": 220,
      "caps": 260
    }
  },
  {
    "id": "area_51_gate",
    "name": "Area 51 Gate",
    "lat": 37.2431,
    "lng": -115.793,
    "lvl": 45,
    "rarity": "legendary",
    "triggerRadius": 180,
    "loot": {
      "items": [],
      "xp": 400,
      "caps": 400
    }
  },

  {
    "id": "chernobyl_pripyat",
    "name": "Chernobyl Pripyat",
    "lat": 51.389,
    "lng": 30.099,
    "lvl": 99,
    "rarity": "legendary",
    "triggerRadius": 200,
    "loot": {
      "items": [],
      "xp": 800,
      "caps": 800
    }
  },
  {
    "id": "fukushima_daiichi",
    "name": "Fukushima Daiichi",
    "lat": 37.421,
    "lng": 141.032,
    "lvl": 99,
    "rarity": "legendary",
    "triggerRadius": 200,
    "loot": {
      "items": [],
      "xp": 800,
      "caps": 800
    }
  },
  {
    "id": "los_alamos_lab",
    "name": "Los Alamos Lab",
    "lat": 35.875,
    "lng": -106.3,
    "lvl": 50,
    "rarity": "legendary",
    "triggerRadius": 180,
    "loot": {
      "items": [],
      "xp": 420,
      "caps": 420
    }
  },
  {
    "id": "yucca_mountain",
    "name": "Yucca Mountain",
    "lat": 37,
    "lng": -116.8,
    "lvl": 50,
    "rarity": "legendary",
    "triggerRadius": 180,
    "loot": {
      "items": [],
      "xp": 420,
      "caps": 420
    }
  },
  {
    "id": "nevada_test_site",
    "name": "Nevada Test Site",
    "lat": 37.1,
    "lng": -116,
    "lvl": 48,
    "rarity": "legendary",
    "triggerRadius": 180,
    "loot": {
      "items": [],
      "xp": 400,
      "caps": 400
    }
  },
  {
    "id": "trinity_site",
    "name": "Trinity Site",
    "lat": 33.677,
    "lng": -106.475,
    "lvl": 55,
    "rarity": "legendary",
    "triggerRadius": 180,
    "loot": {
      "items": [],
      "xp": 450,
      "caps": 450
    }
  },
  {
    "id": "three_mile_island",
    "name": "Three Mile Island",
    "lat": 40.1522,
    "lng": -77.1581,
    "lvl": 20,
    "rarity": "epic",
    "triggerRadius": 140,
    "loot": {
      "items": [],
      "xp": 200,
      "caps": 180
    }
  },
  {
    "id": "hanford_site",
    "name": "Hanford Site",
    "lat": 46.5494,
    "lng": -119.4762,
    "lvl": 40,
    "rarity": "legendary",
    "triggerRadius": 180,
    "loot": {
      "items": [],
      "xp": 360,
      "caps": 360
    }
  },

  {
    "id": "dead_wind_cavern",
    "name": "Dead Wind Cavern",
    "lat": 35.8,
    "lng": -115.4,
    "lvl": 40,
    "rarity": "legendary",
    "triggerRadius": 180,
    "loot": {
      "items": [],
      "xp": 360,
      "caps": 360
    }
  },
  {
    "id": "vault_34",
    "name": "Vault 34",
    "lat": 36.175,
    "lng": -114.75,
    "lvl": 20,
    "rarity": "epic",
    "triggerRadius": 150,
    "loot": {
      "items": [],
      "xp": 220,
      "caps": 200
    }
  },
  {
    "id": "jacobstown",
    "name": "Jacobstown",
    "lat": 36.3,
    "lng": -115.65,
    "lvl": 22,
    "rarity": "rare",
    "triggerRadius": 120,
    "loot": {
      "items": ["combat_armor", "hunting_rifle", "super_sledge"],
      "xp": 240,
      "caps": 260
    }
  },
  {
    "id": "searchlight_church",
    "name": "Searchlight Church",
    "lat": 35.46434,
    "lng": -114.91844,
    "lvl": 10,
    "rarity": "rare",
    "triggerRadius": 100,
    "loot": {
      "items": ["searchlight_guard_uniform", "radaway", "radshield"],
      "xp": 100,
      "caps": 110
    }
  },
  {
    "id": "cottonwood_cove",
    "name": "Cottonwood Cove",
    "lat": 35.999,
    "lng": -114.5,
    "lvl": 14,
    "rarity": "rare",
    "triggerRadius": 120,
    "loot": {
      "items": [],
      "xp": 140,
      "caps": 130
    }
  },
  {
    "id": "deathclaw_promontory",
    "name": "Deathclaw Promontory",
    "lat": 36.1,
    "lng": -114.9,
    "lvl": 45,
    "rarity": "legendary",
    "triggerRadius": 180,
    "loot": {
      "items": ["deathclaw_horn"],
      "xp": 450,
      "caps": 420
    }
  },

  {
    "id": "nipton_trading_post",
    "name": "Nipton Trading Post",
    "lat": 35.46667,
    "lng": -115.27222,
    "lvl": 4,
    "rarity": "common",
    "triggerRadius": 60,
    "loot": {
      "items": ["dust_mask", "rusted_knife", "dusty_book"],
      "xp": 40,
      "caps": 35
    }
  },
  {
    "id": "nipton",
    "name": "Nipton",
    "lat": 35.235,
    "lng": -114.98,
    "lvl": 4,
    "rarity": "common",
    "triggerRadius": 60,
    "loot": {
      "items": [],
      "xp": 40,
      "caps": 35
    }
  },
  {
    "id": "nipton_road_pit_stop",
    "name": "Nipton Road Pit Stop",
    "lat": 35.36,
    "lng": -115.26,
    "lvl": 5,
    "rarity": "common",
    "triggerRadius": 60,
    "loot": {
      "items": ["side_caravan_rescue"],
      "xp": 50,
      "caps": 40
    }
  },
  {
    "id": "boulder_city_hotel",
    "name": "Boulder City Hotel",
    "lat": 35.9775,
    "lng": -114.83639,
    "lvl": 6,
    "rarity": "rare",
    "triggerRadius": 80,
    "loot": {
      "items": ["rusted_revolver"],
      "xp": 60,
      "caps": 55
    }
  },
  {
    "id": "red_rock_canyon",
    "name": "Red Rock Canyon",
    "lat": 36.13514,
    "lng": -115.4283,
    "lvl": 8,
    "rarity": "rare",
    "triggerRadius": 100,
    "loot": {
      "items": ["gecko_tail", "gecko_hide", "gecko_skull", "nightstalker_fang"],
      "xp": 120,
      "caps": 120
    }
  },
  {
    "id": "bonnie_springs_ranch",
    "name": "Bonnie Springs Ranch",
    "lat": 36.06007,
    "lng": -115.45027,
    "lvl": 7,
    "rarity": "common",
    "triggerRadius": 80,
    "loot": {
      "items": ["pipe_pistol"],
      "xp": 70,
      "caps": 60
    }
  },
  {
    "id": "sloan",
    "name": "Sloan",
    "lat": 36.024,
    "lng": -115.414,
    "lvl": 8,
    "rarity": "common",
    "triggerRadius": 80,
    "loot": {
      "items": [],
      "xp": 80,
      "caps": 70
    }
  },
  {
    "id": "quarry_junction",
    "name": "Quarry Junction",
    "lat": 35.92,
    "lng": -115.18,
    "lvl": 35,
    "rarity": "epic",
    "triggerRadius": 150,
    "loot": {
      "items": ["deathclaw_horn"],
      "xp": 320,
      "caps": 320
    }
  },

  {
    "id": "new_vegas_strip",
    "name": "New Vegas Strip",
    "lat": 36.11274,
    "lng": -115.174301,
    "lvl": 10,
    "rarity": "epic",
    "triggerRadius": 120,
    "loot": {
      "items": [],
      "xp": 120,
      "caps": 120
    }
  },
  {
    "id": "freeside_market",
    "name": "Freeside Market",
    "lat": 36.170719,
    "lng": -115.143929,
    "lvl": 5,
    "rarity": "common",
    "triggerRadius": 80,
    "loot": {
      "items": ["cooked_gecko_meat", "iguana_bits", "broken_toy"],
      "xp": 60,
      "caps": 50
    }
  },
  {
    "id": "freeside",
    "name": "Freeside",
    "lat": 36.1698,
    "lng": -115.139,
    "lvl": 5,
    "rarity": "common",
    "triggerRadius": 80,
    "loot": {
      "items": [],
      "xp": 60,
      "caps": 50
    }
  },
  {
    "id": "atomic_wrangler",
    "name": "Atomic Wrangler",
    "lat": 36.1703,
    "lng": -115.139,
    "lvl": 7,
    "rarity": "rare",
    "triggerRadius": 80,
    "loot": {
      "items": [],
      "xp": 80,
      "caps": 70
    }
  },
  {
    "id": "kings_school_of_impersonation",
    "name": "King's School of Impersonation",
    "lat": 36.171,
    "lng": -115.138,
    "lvl": 7,
    "rarity": "rare",
    "triggerRadius": 80,
    "loot": {
      "items": [],
      "xp": 80,
      "caps": 70
    }
  },
  {
    "id": "ultra_luxe_casino",
    "name": "Ultra-Luxe Casino",
    "lat": 36.0972,
    "lng": -115.1787,
    "lvl": 11,
    "rarity": "epic",
    "triggerRadius": 120,
    "loot": {
      "items": [],
      "xp": 130,
      "caps": 140
    }
  },
  {
    "id": "gomorrah_casino",
    "name": "Gomorrah Casino",
    "lat": 36.11,
    "lng": -115.172,
    "lvl": 10,
    "rarity": "epic",
    "triggerRadius": 120,
    "loot": {
      "items": [],
      "xp": 120,
      "caps": 120
    }
  },
  {
    "id": "the_tops",
    "name": "The Tops",
    "lat": 36.1175,
    "lng": -115.173,
    "lvl": 10,
    "rarity": "epic",
    "triggerRadius": 120,
    "loot": {
      "items": [],
      "xp": 120,
      "caps": 120
    }
  },

  {
    "id": "nellis_air_force_base",
    "name": "Nellis Air Force Base",
    "lat": 36.2361,
    "lng": -115.0342,
    "lvl": 25,
    "rarity": "epic",
    "triggerRadius": 150,
    "loot": {
      "items": ["frag_grenade", "anti_material_rifle", "ion_repeater"],
      "xp": 260,
      "caps": 260
    }
  },
  {
    "id": "helios_one",
    "name": "Helios One",
    "lat": 35.758,
    "lng": -114.953,
    "lvl": 13,
    "rarity": "epic",
    "triggerRadius": 120,
    "loot": {
      "items": [],
      "xp": 140,
      "caps": 130
    }
  },
  {
    "id": "repconn_test_site",
    "name": "REPCONN Test Site",
    "lat": 36.036,
    "lng": -115.088,
    "lvl": 12,
    "rarity": "rare",
    "triggerRadius": 120,
    "loot": {
      "items": [],
      "xp": 130,
      "caps": 120
    }
  },
  {
    "id": "repconn_hq",
    "name": "REPCONN HQ",
    "lat": 36.16,
    "lng": -115.15,
    "lvl": 10,
    "rarity": "rare",
    "triggerRadius": 120,
    "loot": {
      "items": [],
      "xp": 110,
      "caps": 100
    }
  },
  {
    "id": "mccarran_airport",
    "name": "McCarran Airport",
    "lat": 36.0801,
    "lng": -115.1522,
    "lvl": 8,
    "rarity": "rare",
    "triggerRadius": 100,
    "loot": {
      "items": ["mcCarran_trooper_armor", "scout_carbine", "service_rifle"],
      "xp": 140,
      "caps": 130
    }
  },
  {
    "id": "old_mormon_fort",
    "name": "Old Mormon Fort",
    "lat": 36.169,
    "lng": -115.135,
    "lvl": 5,
    "rarity": "common",
    "triggerRadius": 80,
    "loot": {
      "items": [],
      "xp": 60,
      "caps": 50
    }
  },
  {
    "id": "camp_forlorn_hope",
    "name": "Camp Forlorn Hope",
    "lat": 35.75,
    "lng": -114.6,
    "lvl": 12,
    "rarity": "rare",
    "triggerRadius": 120,
    "loot": {
      "items": [],
      "xp": 130,
      "caps": 120
    }
  },
  {
    "id": "bitter_springs",
    "name": "Bitter Springs",
    "lat": 36.33,
    "lng": -115.38,
    "lvl": 15,
    "rarity": "rare",
    "triggerRadius": 120,
    "loot": {
      "items": [],
      "xp": 150,
      "caps": 140
    }
  },

  {
    "id": "hidden_valley_bunker",
    "name": "Hidden Valley Bunker",
    "lat": 36.04,
    "lng": -115.05,
    "lvl": 18,
    "rarity": "epic",
    "triggerRadius": 150,
    "loot": {
      "items": ["advanced_combat_armor", "laser_carbine", "warden_exosuit"],
      "xp": 260,
      "caps": 300
    }
  },
  {
    "id": "ncr_correctional_facility",
    "name": "NCR Correctional Facility",
    "lat": 35.7,
    "lng": -115.03,
    "lvl": 8,
    "rarity": "rare",
    "triggerRadius": 100,
    "loot": {
      "items": [],
      "xp": 90,
      "caps": 80
    }
  },
  {
    "id": "crimson_caravan",
    "name": "Crimson Caravan",
    "lat": 36.1695,
    "lng": -115.125,
    "lvl": 6,
    "rarity": "common",
    "triggerRadius": 80,
    "loot": {
      "items": [],
      "xp": 70,
      "caps": 60
    }
  },
  {
    "id": "the_thorn",
    "name": "The Thorn",
    "lat": 36.102,
    "lng": -115.182,
    "lvl": 12,
    "rarity": "epic",
    "triggerRadius": 120,
    "loot": {
      "items": [],
      "xp": 130,
      "caps": 120
    }
  },
  {
    "id": "fortification_hill",
    "name": "Fortification Hill",
    "lat": 36.01,
    "lng": -114.73,
    "lvl": 20,
    "rarity": "epic",
    "triggerRadius": 150,
    "loot": {
      "items": [],
      "xp": 200,
      "caps": 180
    }
  },
  {
    "id": "lake_mead_cave",
    "name": "Lake Mead Cave",
    "lat": 36.11,
    "lng": -114.72,
    "lvl": 16,
    "rarity": "epic",
    "triggerRadius": 140,
    "loot": {
      "items": [],
      "xp": 160,
      "caps": 150
    }
  },
  {
    "id": "crashed_b_29",
    "name": "Crashed B-29",
    "lat": 36.13,
    "lng": -114.73,
    "lvl": 18,
    "rarity": "epic",
    "triggerRadius": 150,
    "loot": {
      "items": [],
      "xp": 180,
      "caps": 170
    }
  },

  {
    "id": "vault_22",
    "name": "Vault 22",
    "lat": 36.1699,
    "lng": -115.1398,
    "lvl": 32,
    "rarity": "epic",
    "triggerRadius": 150,
    "loot": {
      "items": [],
      "xp": 300,
      "caps": 260
    }
  },
  {
    "id": "vault_3",
    "name": "Vault 3",
    "lat": 36.2,
    "lng": -115.8,
    "lvl": 25,
    "rarity": "rare",
    "triggerRadius": 150,
    "loot": {
      "items": [],
      "xp": 250,
      "caps": 220
    }
  },
  {
    "id": "vault_19",
    "name": "Vault 19",
    "lat": 36.1,
    "lng": -115.9,
    "lvl": 22,
    "rarity": "rare",
    "triggerRadius": 150,
    "loot": {
      "items": [],
      "xp": 220,
      "caps": 200
    }
  },
  {
    "id": "vault_21",
    "name": "Vault 21",
    "lat": 36.1699,
    "lng": -115.1398,
    "lvl": 18,
    "rarity": "rare",
    "triggerRadius": 150,
    "loot": {
      "items": [],
      "xp": 180,
      "caps": 160
    }
  },
  {
    "id": "camp_golf",
    "name": "Camp Golf",
    "lat": 36.14,
    "lng": -115.08,
    "lvl": 14,
    "rarity": "rare",
    "triggerRadius": 120,
    "loot": {
      "items": ["novac_patrol_vest"],
      "xp": 150,
      "caps": 140
    }
  },
  {
    "id": "ranger_station_foxtrot",
    "name": "Ranger Station Foxtrot",
    "lat": 36.38,
    "lng": -115.38,
    "lvl": 18,
    "rarity": "rare",
    "triggerRadius": 120,
    "loot": {
      "items": [],
      "xp": 180,
      "caps": 160
    }
  }

  /* ...continue the same pattern for all remaining locations:
     - id: slug from name
     - name/lat/lng/lvl/rarity: unchanged
     - triggerRadius: 60–80 for minor, 100–120 towns, 140–150 big sites, 180–200 endgame
     - loot: items from mintables where spawnPOI == name, XP/CAPS ≈ lvl * (8–10)
  */
]
